plz,adresse,bezirk,anschluss_1,anschluss_2,anschluss_3,anschluss_4,ladeleistung_1,ladeleistung_2,ladeleistung_3,ladeleistung_4,anzahl_ladepunkte,lng,lat
"10717",Prinzregentenstr. 89,Charlottenburg-Wilmersdorf,AC Steckdose Typ 2,AC Steckdose Typ 2,,,11,11,,,2,13.3331399999993,52.4900419999968
"10587",Englische Str. 1,Charlottenburg-Wilmersdorf,AC Steckdose Typ 2,AC Steckdose Typ 2,,,11,11,,,2,13.3311629999993,52.5143689999968
"10717",Bundesallee 204-206,Charlottenburg-Wilmersdorf,AC Steckdose Typ 2,AC Steckdose Typ 2,,,22,22,,,2,13.3310999999993,52.4947499999968
"10717",Bundesallee 22,Charlottenburg-Wilmersdorf,AC Steckdose Typ 2,AC Steckdose Typ 2,,,11,11,,,2,13.3301539999993,52.4932409999968
"10623",Fasanenstr. 88,Charlottenburg-Wilmersdorf,AC Steckdose Typ 2,AC Steckdose Typ 2,,,11,11,,,2,13.3298939999992,52.5102469999969
"10715",Durlacher Str. 35,Charlottenburg-Wilmersdorf,AC Steckdose Typ 2,AC Steckdose Typ 2,,,11,11,,,2,13.3296049999993,52.4813119999969
"10719",Kurfürstendamm 26,Charlottenburg-Wilmersdorf,AC Steckdose Typ 2,AC Steckdose Typ 2,,,11,11,,,2,13.3293299999993,52.5035109999968
"10719",Meinekestr. 1,Charlottenburg-Wilmersdorf,AC Steckdose Typ 2,AC Steckdose Typ 2,,,11,11,,,2,13.3290699999993,52.5029069999969
"10717",Trautenaustr. 13,Charlottenburg-Wilmersdorf,AC Steckdose Typ 2,AC Steckdose Typ 2,,,11,11,,,2,13.3267409999992,52.4913079999968
"10719",Fasanenstr. 38,Charlottenburg-Wilmersdorf,AC Steckdose Typ 2,AC Steckdose Typ 2,,,11,11,,,2,13.3265989999993,52.4986549999969
"12161",Wiesbadener Str. 84,Tempelhof-Schöneberg,AC Steckdose Typ 2,AC Steckdose Typ 2,,,11,11,,,2,13.3255829999993,52.4714929999968
"10623",Uhlandstr. 177,Charlottenburg-Wilmersdorf,AC Steckdose Typ 2,AC Steckdose Typ 2,,,22,22,,,2,13.3253829999993,52.5027749999969
"10717",Holsteinische Str. 19,Charlottenburg-Wilmersdorf,AC Steckdose Typ 2,AC Steckdose Typ 2,,,11,11,,,2,13.3249739999993,52.4912059999968
"12161",Odenwaldstr. 8,Tempelhof-Schöneberg,AC Steckdose Typ 2,AC Steckdose Typ 2,,,11,11,,,2,13.3243799999992,52.4678009999969
"10719",Ludwigkirchstr. 6,Charlottenburg-Wilmersdorf,AC Steckdose Typ 2,AC Steckdose Typ 2,,,11,11,,,2,13.3242189999994,52.4978829999968
"10715",Mainzer Str. 22,Charlottenburg-Wilmersdorf,AC Steckdose Typ 2,AC Steckdose Typ 2,,,11,11,,,2,13.3238439999993,52.4799399999969
"10719",Uhlandstr. 61,Charlottenburg-Wilmersdorf,AC Steckdose Typ 2,AC Steckdose Typ 2,,,11,11,,,2,13.3236309999993,52.4945209999968
"10623",Knesebeckstr. 2,Charlottenburg-Wilmersdorf,AC Steckdose Typ 2,AC Steckdose Typ 2,,,11,11,,,2,13.3229629999993,52.5105939999968
"10177",Gasteiner Str. 9,Charlottenburg-Wilmersdorf,AC Steckdose Typ 2,AC Steckdose Typ 2,,,11,11,,,2,13.3221459999993,52.4877129999969
"10587",Fraunhofer Str. 33,Charlottenburg-Wilmersdorf,AC Steckdose Typ 2,AC Steckdose Typ 2,,,11,11,,,2,13.3215439999993,52.5146989999969
"10719",Düsseldorfer Str. 17,Charlottenburg-Wilmersdorf,AC Steckdose Typ 2,AC Steckdose Typ 2,,,11,11,,,2,13.3196069999992,52.4960129999969
"10713",Sigmaringer Str. 28,Charlottenburg-Wilmersdorf,AC Steckdose Typ 2,AC Steckdose Typ 2,,,11,11,,,2,13.3193029999992,52.4897229999968
"10713",Aachener Str. 5,Charlottenburg-Wilmersdorf,AC Steckdose Typ 2,AC Steckdose Typ 2,,,11,11,,,2,13.3188559999993,52.4813229999969
"10625",Schillerstr. 10,Charlottenburg-Wilmersdorf,AC Steckdose Typ 2,AC Steckdose Typ 2,,,11,11,,,2,13.3186859999993,52.5109619999969
"10707",Kurfürstendamm 49,Charlottenburg-Wilmersdorf,AC Steckdose Typ 2,AC Steckdose Typ 2,,,11,11,,,2,13.3183349999993,52.5015619999969
"10625",Schlüterstr. 62,Charlottenburg-Wilmersdorf,AC Steckdose Typ 2,AC Steckdose Typ 2,,,11,11,,,2,13.3176689999993,52.5058759999968
"14197",Spessartstr. 8,Charlottenburg-Wilmersdorf,AC Steckdose Typ 2,AC Steckdose Typ 2,,,11,11,,,2,13.3164939999993,52.4756319999969
"10707",Olivaer Platz,Charlottenburg-Wilmersdorf,AC Steckdose Typ 2,AC Steckdose Typ 2,,,22,22,,,2,13.3162959999993,52.4993049999968
"10707",Olivaer Platz,Charlottenburg-Wilmersdorf,AC Steckdose Typ 2,AC Steckdose Typ 2,,,22,22,,,2,13.3162959999993,52.4993049999968
"10707",Olivaer Platz,Charlottenburg-Wilmersdorf,AC Steckdose Typ 2,AC Steckdose Typ 2,,,22,22,,,2,13.3162959999993,52.4993049999968
"10587",Guerickestr. 39,Charlottenburg-Wilmersdorf,AC Steckdose Typ 2,AC Steckdose Typ 2,,,11,11,,,2,13.3156719999993,52.5179849999968
"14197",Rüdesheimer Str. 2,Charlottenburg-Wilmersdorf,AC Steckdose Typ 2,AC Steckdose Typ 2,,,11,11,,,2,13.3143089999993,52.4740239999968
"10707",Fehrbelliner Platz 8,Charlottenburg-Wilmersdorf,AC Steckdose Typ 2,AC Steckdose Typ 2,,,11,11,,,2,13.3140799999993,52.4906699999969
"10707",Düsseldorfer Str. 51,Charlottenburg-Wilmersdorf,AC Steckdose Typ 2,AC Steckdose Typ 2,,,11,11,,,2,13.3138939999992,52.4967089999968
"10629",Leibnizstr. 59,Charlottenburg-Wilmersdorf,AC Steckdose Typ 2,AC Steckdose Typ 2,,,11,11,,,2,13.3132389999993,52.5027569999969
"10585",Zillestr. 2,Charlottenburg-Wilmersdorf,AC Steckdose Typ 2,AC Steckdose Typ 2,,,11,11,,,2,13.3132179999992,52.5150059999968
"10625",Schillerstr. 29,Charlottenburg-Wilmersdorf,AC Steckdose Typ 2,AC Steckdose Typ 2,,,11,11,,,2,13.3098929999992,52.5103409999968
"10629",Clausewitzstr. 5,Charlottenburg-Wilmersdorf,AC Steckdose Typ 2,AC Steckdose Typ 2,,,11,11,,,2,13.3092559999993,52.5005019999968
"10707",Wittelsbacherstr. 19,Charlottenburg-Wilmersdorf,AC Steckdose Typ 2,AC Steckdose Typ 2,,,11,11,,,2,13.3088869999992,52.4953709999969
"14199",Forckenbeckstr. 96,Charlottenburg-Wilmersdorf,AC Steckdose Typ 2,AC Steckdose Typ 2,,,11,11,,,2,13.3087329999992,52.4792409999968
"14197",Schlangenbader Str. 88,Charlottenburg-Wilmersdorf,AC Steckdose Typ 2,AC Steckdose Typ 2,,,22,22,,,2,13.3082839999993,52.4752229999969
"14197",Schlangenbader Str. 26,Charlottenburg-Wilmersdorf,AC Steckdose Typ 2,AC Steckdose Typ 2,,,11,11,,,2,13.3081039999993,52.4721719999967
"10629",Waitzstr. 7,Charlottenburg-Wilmersdorf,AC Steckdose Typ 2,AC Steckdose Typ 2,,,11,11,,,2,13.3055669999992,52.5016869999968
"10709",Westfälische Str. 81,Charlottenburg-Wilmersdorf,AC Steckdose Typ 2,AC Steckdose Typ 2,,,11,11,,,2,13.3052549999993,52.4931449999968
"10709",Eisenzahnstr. 36,Charlottenburg-Wilmersdorf,AC Steckdose Typ 2,AC Steckdose Typ 2,,,11,11,,,2,13.3045469999992,52.4886919999967
"10587",Wilmersdorfer Str. 8,Charlottenburg-Wilmersdorf,AC Steckdose Typ 2,AC Steckdose Typ 2,,,11,11,,,2,13.3044469999992,52.5172069999968
"14197",Rudolf-Mosse-Str. 9,Charlottenburg-Wilmersdorf,AC Steckdose Typ 2,AC Steckdose Typ 2,,,11,11,,,2,13.3038689999992,52.4749909999967
"10629",Dahlmannstr. 1,Charlottenburg-Wilmersdorf,AC Steckdose Typ 2,AC Steckdose Typ 2,,,11,11,,,2,13.3037099999993,52.5034419999968
"10713",Rudolstädter Str. 123,Charlottenburg-Wilmersdorf,AC Steckdose Typ 2,AC Steckdose Typ 2,,,11,11,,,2,13.3028279999992,52.4878089999968
"10709",Kurfürstendamm 90,Charlottenburg-Wilmersdorf,AC Steckdose Typ 2,AC Steckdose Typ 2,,,11,11,,,2,13.3017949999992,52.4992249999969
"10627",Pestalozzistr. 44,Charlottenburg-Wilmersdorf,AC Steckdose Typ 2,AC Steckdose Typ 2,,,11,11,,,2,13.3017499999993,52.5080059999968
"10709",Cicerostr. 13,Charlottenburg-Wilmersdorf,AC Steckdose Typ 2,AC Steckdose Typ 2,,,11,11,,,2,13.3016099999992,52.4942989999968
"10585",Kaiser-Friedrich-Str. 17,Charlottenburg-Wilmersdorf,AC Steckdose Typ 2,AC Steckdose Typ 2,,,11,11,,,2,13.3008679999993,52.5144279999969
"10709",Hektorstr. 21,Charlottenburg-Wilmersdorf,AC Steckdose Typ 2,AC Steckdose Typ 2,,,11,11,,,2,13.2974949999992,52.4982849999968
"10627",Suarezstr. 1,Charlottenburg-Wilmersdorf,AC Steckdose Typ 2,AC Steckdose Typ 2,,,11,11,,,2,13.2969539999992,52.5104809999968
"14059",Schloßstr. 64,Charlottenburg-Wilmersdorf,AC Steckdose Typ 2,AC Steckdose Typ 2,,,11,11,,,2,13.2965749999992,52.5175449999968
"10629",Gervinusstr. 27,Charlottenburg-Wilmersdorf,AC Steckdose Typ 2,AC Steckdose Typ 2,,,11,11,,,2,13.2963959999992,52.5020779999968
"14059",Knobelsdorffstr. 2,Charlottenburg-Wilmersdorf,AC Steckdose Typ 2,AC Steckdose Typ 2,,,11,11,,,2,13.2963059999992,52.5136299999968
"14057",Leonhardtstr. 14,Charlottenburg-Wilmersdorf,AC Steckdose Typ 2,AC Steckdose Typ 2,,,11,11,,,2,13.2961009999993,52.5059899999967
"14057",Witzlebenstr. 36,Charlottenburg-Wilmersdorf,AC Steckdose Typ 2,AC Steckdose Typ 2,,,11,11,,,2,13.2949959999992,52.5097859999968
"14199",Hohenzollerndamm 137,Charlottenburg-Wilmersdorf,AC Steckdose Typ 2,AC Steckdose Typ 2,,,11,11,,,2,13.2940779999992,52.4842819999968
"14059",Nehringstr. 4,Charlottenburg-Wilmersdorf,AC Steckdose Typ 2,AC Steckdose Typ 2,,,11,11,,,2,13.2939679999992,52.5164899999967
"14059",Horstweg 9,Charlottenburg-Wilmersdorf,AC Steckdose Typ 2,AC Steckdose Typ 2,,,11,11,,,2,13.2929019999992,52.5124469999967
"14193",Caspar-Theyß-Str. 33,Charlottenburg-Wilmersdorf,AC Steckdose Typ 2,AC Steckdose Typ 2,,,11,11,,,2,13.2928819999992,52.4913899999968
"14199",Kissinger Str. 16,Charlottenburg-Wilmersdorf,AC Steckdose Typ 2,AC Steckdose Typ 2,,,11,11,,,2,13.2925879999992,52.4790209999967
"14057",Suarezstr. 30,Charlottenburg-Wilmersdorf,AC Steckdose Typ 2,AC Steckdose Typ 2,,,11,11,,,2,13.2913479999991,52.5039659999967
"14059",Danckelmannstr. 1,Charlottenburg-Wilmersdorf,AC Steckdose Typ 2,AC Steckdose Typ 2,,,11,11,,,2,13.2902539999992,52.5176029999968
"14057",Sophie-Charlotten-Str. 55,Charlottenburg-Wilmersdorf,AC Steckdose Typ 2,AC Steckdose Typ 2,,,11,11,,,2,13.2892789999993,52.5099909999968
"14059",Knobelsdorffstr. 53,Charlottenburg-Wilmersdorf,AC Steckdose Typ 2,AC Steckdose Typ 2,,,11,11,,,2,13.2888119999993,52.5130679999967
"10711",Bornstedter Str. 20,Charlottenburg-Wilmersdorf,AC Steckdose Typ 2,AC Steckdose Typ 2,,,11,11,,,2,13.2879509999991,52.4969009999967
"14199",Berkaer Str. 40,Charlottenburg-Wilmersdorf,AC Steckdose Typ 2,AC Steckdose Typ 2,,,11,11,,,2,13.2878429999992,52.4769019999967
"14059",Sophie-Charlotten-Str. 105,Charlottenburg-Wilmersdorf,AC Steckdose Typ 2,AC Steckdose Typ 2,,,11,11,,,2,13.2866009999992,52.5194449999968
"14057",Riehlstr. 19,Charlottenburg-Wilmersdorf,AC Steckdose Typ 2,AC Steckdose Typ 2,,,11,11,,,2,13.2863719999992,52.5100499999967
"10711",Bornimer Str. 4,Charlottenburg-Wilmersdorf,AC Steckdose Typ 2,AC Steckdose Typ 2,,,11,11,,,2,13.2858559999991,52.4960609999968
"14057",Herbartstr. 15,Charlottenburg-Wilmersdorf,AC Steckdose Typ 2,AC Steckdose Typ 2,,,11,11,,,2,13.2852869999992,52.5070959999968
"14057",Dernburgstr. 57,Charlottenburg-Wilmersdorf,AC Steckdose Typ 2,AC Steckdose Typ 2,,,11,11,,,2,13.2837079999991,52.5059039999967
"14199",Hohenzollerndamm 110,Charlottenburg-Wilmersdorf,AC Steckdose Typ 2,AC Steckdose Typ 2,,,11,11,,,2,13.2823639999992,52.4776339999968
"14059",Königin-Elisabeth-Str. 33,Charlottenburg-Wilmersdorf,AC Steckdose Typ 2,AC Steckdose Typ 2,,,11,11,,,2,13.2815179999992,52.5131909999967
"14057",Bredtschneiderstr. 10,Charlottenburg-Wilmersdorf,AC Steckdose Typ 2,AC Steckdose Typ 2,,,11,11,,,2,13.2794899999991,52.5087219999967
"14050",Fredericiastr. 11,Charlottenburg-Wilmersdorf,AC Steckdose Typ 2,AC Steckdose Typ 2,,,11,11,,,2,13.2792369999991,52.5108539999967
"14050",Haeselerstr. 28,Charlottenburg-Wilmersdorf,AC Steckdose Typ 2,AC Steckdose Typ 2,,,11,11,,,2,13.2780259999992,52.5139519999967
"14050",Lindenallee 28,Charlottenburg-Wilmersdorf,AC Steckdose Typ 2,AC Steckdose Typ 2,,,11,11,,,2,13.2717639999991,52.5102949999968
"14193",Fontanestr. 1,Charlottenburg-Wilmersdorf,AC Steckdose Typ 2,AC Steckdose Typ 2,,,11,11,,,2,13.2637119999991,52.4869759999967
"14055",Heerstr. 36,Charlottenburg-Wilmersdorf,AC Steckdose Typ 2,AC Steckdose Typ 2,,,11,11,,,2,13.2606569999991,52.5089859999967
"14055",Dickensweg 25,Charlottenburg-Wilmersdorf,AC Steckdose Typ 2,AC Steckdose Typ 2,,,22,22,,,2,13.2348559999991,52.5084189999967
"12159",Schmargendorfer Str. 6,Tempelhof-Schöneberg,AC Steckdose Typ 2,,,,3,,,,1,13.3336249999993,52.4715349999969
"14197",Bundesallee 62,Tempelhof-Schöneberg,AC Steckdose Typ 2,,,,3,,,,1,13.3283229999992,52.4770159999969
"12161",Fröaufstr. 2,Tempelhof-Schöneberg,AC Steckdose Typ 2,,,,3,,,,1,13.3274509999993,52.4671299999968
"12161",Taunusstr. 1,Tempelhof-Schöneberg,AC Steckdose Typ 2,,,,3,,,,1,13.3269779999993,52.4735559999969
"10715",Detmolderstr. 11,Charlottenburg-Wilmersdorf,AC Steckdose Typ 2,,,,3,,,,1,13.3238969999992,52.4788239999968
"12161",Wiesbadener Str. 14,Tempelhof-Schöneberg,AC Steckdose Typ 2,,,,3,,,,1,13.3208369999992,52.4716599999969
"14197",Mecklenburgische Str. 56,Charlottenburg-Wilmersdorf,AC Steckdose Typ 2,,,,3,,,,1,13.3031209999993,52.4750039999968
"14199",Warnemünder Str. 7,Charlottenburg-Wilmersdorf,AC Steckdose Typ 2,,,,3,,,,1,13.2902909999991,52.4736099999967
"14195",Pacelliallee 8,Steglitz-Zehlendorf,AC Steckdose Typ 2,,,,3,,,,1,13.2895399999991,52.4684359999968
"14193",Hubertusallee 54,Charlottenburg-Wilmersdorf,AC Steckdose Typ 2,,,,3,,,,1,13.2833259999991,52.4845229999967
"14052",Preußenallee 34,Charlottenburg-Wilmersdorf,AC Steckdose Typ 2,,,,3,,,,1,13.2600309999991,52.5151059999968
"14055",Kiplingweg 22,Charlottenburg-Wilmersdorf,AC Steckdose Typ 2,,,,3,,,,1,13.231717999999,52.5062389999966
"10707",Olivaer Platz,Charlottenburg-Wilmersdorf,CCS,AC Steckdose Typ 2,,,50,22,,,2,13.3162959999993,52.4993049999968
"14050",Spandauer Damm 134,Charlottenburg-Wilmersdorf,CCS,AC Steckdose Typ 2,,,50,22,,,2,13.2746099999992,52.5192539999967
"10585",Richard Wagner Straße 52,Charlottenburg-Wilmersdorf,AC Steckdose Typ 2,AC Steckdose Typ 2,,,22,22,,,2,13.3068746108813,52.5163920471131
"10407",Roseggerstraße 35,Neukölln,AC Steckdose Typ 2,,,,11,,,,1,13.3153303599992,52.5023041154016
"10407",Roseggerstraße 35,Neukölln,AC Steckdose Typ 2,,,,11,,,,1,13.3153303599992,52.5023041154016
"14050",Soorstraße 23 schräg links,Charlottenburg-Wilmersdorf,AC Steckdose Typ 2,,,,11,,,,1,13.2765215999991,52.5119590999967
"14050",Soorstraße 23 schräg links,Charlottenburg-Wilmersdorf,AC Steckdose Typ 2,,,,11,,,,1,13.2765215999991,52.5119590999967
"10717",Güntzelstraße 56,Charlottenburg-Wilmersdorf,AC Steckdose Typ 2,AC Steckdose Typ 2,,,22,22,,,2,13.3304768773148,52.490938441795
"10623",Straße des 17. Juni 115,Charlottenburg-Wilmersdorf,AC Steckdose Typ 2,AC Steckdose Typ 2,,,22,22,,,2,13.3296983202717,52.5129618742866
"10719",Schaperstraße 17,Charlottenburg-Wilmersdorf,AC Steckdose Typ 2,AC Steckdose Typ 2,,,22,22,,,2,13.3290999999993,52.4993499999968
"12161",Friedrich-Wilhelm-Platz 7,Tempelhof-Schöneberg,AC Steckdose Typ 2,AC Steckdose Typ 2,,,22,22,,,2,13.3279999999994,52.4717199999968
"10623",Fasanenstr. 12,Charlottenburg-Wilmersdorf,AC Steckdose Typ 2,AC Steckdose Typ 2,,,22,22,,,2,13.3274229999993,52.5050419999968
"12161",Südwestkorso 10,Tempelhof-Schöneberg,AC Steckdose Typ 2,AC Steckdose Typ 2,,,22,22,,,2,13.3235099999993,52.4750139999968
"10623",Savignyplatz 2,Charlottenburg-Wilmersdorf,AC Steckdose Typ 2,AC Steckdose Typ 2,,,22,22,,,2,13.3233089999993,52.5054419999969
"10587",Marchstraße (seitlich von Straße des 17. Juni 152),Charlottenburg-Wilmersdorf,AC Steckdose Typ 2,AC Steckdose Typ 2,,,22,22,,,2,13.3228949999993,52.5151869999969
"10623",Savignyplatz 6,Charlottenburg-Wilmersdorf,AC Steckdose Typ 2,AC Steckdose Typ 2,,,22,22,,,2,13.3221269999993,52.5066529999969
"10707",Schlüterstraße 46,Charlottenburg-Wilmersdorf,AC Steckdose Typ 2,AC Steckdose Typ 2,,,22,22,,,2,13.3168319999992,52.5009749999968
"10707",Pommersche Straße 9,Charlottenburg-Wilmersdorf,AC Steckdose Typ 2,AC Steckdose Typ 2,,,22,22,,,2,13.3153709999993,52.4934509999969
"10585",Otto-Suhr-Allee 84,Charlottenburg-Wilmersdorf,AC Steckdose Typ 2,AC Steckdose Typ 2,,,22,22,,,2,13.3097199999992,52.5168489999968
"10585",Krumme Straße 73,Charlottenburg-Wilmersdorf,AC Steckdose Typ 2,AC Steckdose Typ 2,,,22,22,,,2,13.3092762098209,52.5120765844896
"10627",Kantstraße 56B,Charlottenburg-Wilmersdorf,AC Steckdose Typ 2,AC Steckdose Typ 2,,,22,22,,,2,13.3062329999992,52.5068829999968
"10627",Windscheid Str. 20,Charlottenburg-Wilmersdorf,AC Steckdose Typ 2,AC Steckdose Typ 2,,,22,22,,,2,13.3001299999993,52.5053319999968
"14199",Fritz-Wildung-Straße 26,Charlottenburg-Wilmersdorf,AC Steckdose Typ 2,AC Steckdose Typ 2,,,22,22,,,2,13.2978199999992,52.4836469999968
"14059",Schloßstr. 1A,Charlottenburg-Wilmersdorf,AC Steckdose Typ 2,AC Steckdose Typ 2,,,22,22,,,2,13.2957169999992,52.5189239999967
"14052",Theodor-Heuss-Platz 5,Charlottenburg-Wilmersdorf,AC Steckdose Typ 2,AC Steckdose Typ 2,,,22,22,,,2,13.2726939999992,52.5083729999968
"14050",Steubenplatz 2-4,Charlottenburg-Wilmersdorf,AC Steckdose Typ 2,AC Steckdose Typ 2,,,22,22,,,2,13.2611749999991,52.5164209999967
"10243",Straußberger Str. 8a,Charlottenburg-Wilmersdorf,AC Steckdose Typ 2,AC Steckdose Typ 2,,,22,22,,,2,13.3283901999993,52.4895241499969
"10585",Krumme Str. 85,Charlottenburg-Wilmersdorf,AC Steckdose Typ 2,AC Steckdose Typ 2,,,11,11,,,2,13.3098379999992,52.5139719999968
"10587",Franklinstr. 7,Charlottenburg-Wilmersdorf,DC Kupplung Combo,DC Kupplung Combo,,,150,150,,,2,13.3268949999993,52.5193489999968
"10587",Englische Strasse 1-4,Charlottenburg-Wilmersdorf,AC Steckdose Typ 2,AC Steckdose Typ 2,AC Steckdose Typ 2,AC Steckdose Typ 2,11,11,11,11,4,13.3312559999993,52.5143199999968
"10587",Englische Strasse 1-4,Charlottenburg-Wilmersdorf,AC Steckdose Typ 2,AC Steckdose Typ 2,AC Steckdose Typ 2,AC Steckdose Typ 2,11,11,11,11,4,13.3312559999993,52.5143199999968
"10587",Englische Strasse 1-4,Charlottenburg-Wilmersdorf,AC Steckdose Typ 2,AC Steckdose Typ 2,,,11,11,,,2,13.3312559999993,52.5143199999968
"10587",Salzufer 1,Charlottenburg-Wilmersdorf,AC Steckdose Typ 2,AC Steckdose Typ 2,,,22,22,,,2,13.3303529999993,52.5153659999968
"10587",Salzufer 1,Charlottenburg-Wilmersdorf,AC Steckdose Typ 2,AC Steckdose Typ 2,,,22,22,,,2,13.3301204576714,52.5152211742549
"10587",Salzufer 1,Charlottenburg-Wilmersdorf,AC Steckdose Typ 2,AC Steckdose Typ 2,,,22,22,,,2,13.329972474868,52.515274296795
"10587",Salzufer  1,Charlottenburg-Wilmersdorf,AC Kupplung Typ 2,AC Kupplung Typ 2,,,22,22,,,2,13.3297539999993,52.5154269999968
"10587",Salzufer  1,Charlottenburg-Wilmersdorf,AC Kupplung Typ 2,AC Kupplung Typ 2,,,22,22,,,2,13.3295151865074,52.5158085289502
"10587",Salzufer 1,Charlottenburg-Wilmersdorf,AC Steckdose Typ 2,AC Steckdose Typ 2,,,22,22,,,2,13.3302810699993,52.5153993999969
"10707",Württembergische Str. 6,Charlottenburg-Wilmersdorf,AC Steckdose Typ 2,AC Steckdose Typ 2,,,22,22,,,2,13.3154109999992,52.4919119999969
"10707",Württembergische Str. 6,Charlottenburg-Wilmersdorf,AC Steckdose Typ 2,AC Steckdose Typ 2,,,22,22,,,2,13.3151319999993,52.4918139999969
"10707",Württembergische Str. 6,Charlottenburg-Wilmersdorf,AC Steckdose Typ 2,AC Steckdose Typ 2,,,22,22,,,2,13.3151319999993,52.4918139999969
"10707",Württembergische Str. 6,Charlottenburg-Wilmersdorf,AC Steckdose Typ 2,AC Steckdose Typ 2,,,22,22,,,2,13.3153189999992,52.4916609999969
"10707",Württembergische Str. 6,Charlottenburg-Wilmersdorf,AC Steckdose Typ 2,AC Steckdose Typ 2,,,22,22,,,2,13.3152649999993,52.4916639999969
"10709",Seesenerstraße 58-59,Charlottenburg-Wilmersdorf,AC Steckdose Typ 2,AC Steckdose Typ 2,,,22,22,,,2,13.2970223399992,52.4912987099968
"10709",Seesenerstraße 58-59,Charlottenburg-Wilmersdorf,AC Steckdose Typ 2,AC Steckdose Typ 2,,,22,22,,,2,13.2970223399992,52.4912987099968
"10709",Seesener Str. 60-61,Charlottenburg-Wilmersdorf,AC Steckdose Typ 2,AC Steckdose Typ 2,,,11,11,,,2,13.2980618363967,52.4913196948832
"10711",Kurfürstendamm 129 A,Charlottenburg-Wilmersdorf,DC Kupplung Combo,DC Kupplung Combo,,,150,150,,,2,13.2914799999992,52.4966499999968
"10711",Kurfürstendamm 129 A,Charlottenburg-Wilmersdorf,DC Kupplung Combo,DC Kupplung Combo,,,150,150,,,2,13.2914799999992,52.4966499999968
"10711",Kurfürstendamm 129 A,Charlottenburg-Wilmersdorf,DC Kupplung Combo,DC Kupplung Combo,,,300,300,,,2,13.2914799999992,52.4966499999968
"10711",Kurfürstendamm 129 A,Charlottenburg-Wilmersdorf,DC Kupplung Combo,DC Kupplung Combo,,,300,300,,,2,13.2914799999992,52.4966499999968
"10713",Hohenzollerndamm 41,Charlottenburg-Wilmersdorf,DC Kupplung Combo,DC Kupplung Combo,,,360,360,,,2,13.3065599999993,52.4885299999968
"10713",Hohenzollerndamm 41,Charlottenburg-Wilmersdorf,DC Kupplung Combo,DC Kupplung Combo,,,360,360,,,2,13.3065599999993,52.4885299999968
"10717",Landhausstr. 31-32,Charlottenburg-Wilmersdorf,AC Steckdose Typ 2,AC Steckdose Typ 2,,,22,22,,,2,13.3283901999993,52.4895241499969
"10719",Uhlandstr 32,Charlottenburg-Wilmersdorf,"AC Steckdose Typ 2, AC Kupplung Typ 2",,,,11,,,,1,13.3259079999993,52.5002629999969
"10719",Uhlandstr 32,Charlottenburg-Wilmersdorf,"AC Steckdose Typ 2, AC Kupplung Typ 2",,,,11,,,,1,13.3259079999993,52.5002629999969
"10719",Uhlandstr 32,Charlottenburg-Wilmersdorf,"AC Steckdose Typ 2, AC Kupplung Typ 2",,,,11,,,,1,13.3259079999993,52.5002629999969
"10719",Uhlandstr 32,Charlottenburg-Wilmersdorf,"AC Steckdose Typ 2, AC Kupplung Typ 2",,,,11,,,,1,13.3259079999993,52.5002629999969
"10719",Uhlandstr 32,Charlottenburg-Wilmersdorf,"AC Steckdose Typ 2, AC Kupplung Typ 2",,,,11,,,,1,13.3259079999993,52.5002629999969
"10719",Uhlandstr 32,Charlottenburg-Wilmersdorf,"AC Steckdose Typ 2, AC Kupplung Typ 2",,,,11,,,,1,13.3259079999993,52.5002629999969
"10719",Uhlandstr 32,Charlottenburg-Wilmersdorf,"AC Steckdose Typ 2, AC Kupplung Typ 2",,,,11,,,,1,13.3259079999993,52.5002629999969
"10719",Uhlandstr 32,Charlottenburg-Wilmersdorf,"AC Steckdose Typ 2, AC Kupplung Typ 2",,,,11,,,,1,13.3259079999993,52.5002629999969
"10719",Uhlandstr 3,Charlottenburg-Wilmersdorf,"AC Steckdose Typ 2, AC Kupplung Typ 2",,,,11,,,,1,13.3259079999993,52.5002629999969
"10789",Rankestr. 21,Charlottenburg-Wilmersdorf,AC Steckdose Typ 2,AC Steckdose Typ 2,,,22,22,,,2,13.3327605894752,52.5010192703849
"10789",Rankestr. 21,Charlottenburg-Wilmersdorf,AC Steckdose Typ 2,AC Steckdose Typ 2,,,22,22,,,2,13.3327605894752,52.5010192703849
"10789",Rankestr. 21,Charlottenburg-Wilmersdorf,AC Steckdose Typ 2,AC Steckdose Typ 2,,,22,22,,,2,13.3327605894752,52.5010192703849
"10789",Rankestr. 21,Charlottenburg-Wilmersdorf,AC Steckdose Typ 2,AC Steckdose Typ 2,,,22,22,,,2,13.3327605894752,52.5010192703849
"10789",Rankestr. 21,Charlottenburg-Wilmersdorf,AC Steckdose Typ 2,AC Steckdose Typ 2,,,22,22,,,2,13.3327605894752,52.5010192703849
"10789",Rankestr. 21,Charlottenburg-Wilmersdorf,AC Steckdose Typ 2,AC Steckdose Typ 2,,,22,22,,,2,13.3327605894752,52.5010192703849
"13595",Graetschelsteig 2,Spandau,AC Steckdose Typ 2,AC Steckdose Typ 2,,,11,11,,,2,13.1870219999989,52.5174149999965
"13593",Heerstr. 324,Spandau,"DC Kupplung Combo, DC CHAdeMO",,,,175,,,,1,13.1799359999989,52.5167889999964
"13593",Heerstr. 324,Spandau,"DC Kupplung Combo, DC CHAdeMO",,,,175,,,,1,13.1799359999989,52.5167889999964
"13593",Heerstr. 324,Spandau,"DC Kupplung Combo, DC CHAdeMO",,,,175,,,,1,13.1799359999989,52.5167889999964
"13595",Heerstraße 284,Spandau,AC Steckdose Typ 2,AC Steckdose Typ 2,,,22,22,,,2,13.187177999999,52.5153829999965
"13595",Heerstraße 284,Spandau,AC Steckdose Typ 2,AC Steckdose Typ 2,,,22,22,,,2,13.187168999999,52.5153939999965
"14055",Messedamm 24,Charlottenburg-Wilmersdorf,"DC Kupplung Combo, DC CHAdeMO",AC Kupplung Typ 2,,,50,43,,,2,13.2734209999992,52.5001519999968
"14055",Jaffestr. 0,Charlottenburg-Wilmersdorf,AC Steckdose Typ 2,AC Steckdose Typ 2,,,11,11,,,2,13.2666329999992,52.5021279999967
"14055",Jaffestr. 0,Charlottenburg-Wilmersdorf,"DC Kupplung Combo, DC CHAdeMO",AC Kupplung Typ 2,,,50,43,,,2,13.2666369999991,52.5020919999968
"14055",Heerstraße 84,Charlottenburg-Wilmersdorf,AC Steckdose Typ 2,,,,22,,,,1,13.2447596999991,52.5081556999966
"14055",Halenseestraße 51,Charlottenburg-Wilmersdorf,AC Steckdose Typ 2,DC Kupplung Combo,DC Kupplung Combo,,22,100,150,,3,13.2771949999992,52.5017909999968
"14057",Messedamm 1,Charlottenburg-Wilmersdorf,AC Steckdose Typ 2,AC Steckdose Typ 2,,,22,22,,,2,13.2799999999992,52.5099999999968
"14057",Kaiserdamm 117,Charlottenburg-Wilmersdorf,AC Steckdose Typ 2,AC Steckdose Typ 2,AC Steckdose Typ 2,AC Steckdose Typ 2,11,11,11,11,4,13.2960389999992,52.5106349999967
"14057",Kaiserdamm 117,Charlottenburg-Wilmersdorf,AC Steckdose Typ 2,AC Steckdose Typ 2,AC Steckdose Typ 2,,11,11,11,,3,13.2960389999992,52.5106349999967
"14059",Sophie-Charlotten-Straße 92,Charlottenburg-Wilmersdorf,AC Steckdose Typ 2,AC Steckdose Typ 2,,,11,11,,,2,13.2881009367302,52.5158747848605
"14059",Sophie-Charlotten-Str. 41,Charlottenburg-Wilmersdorf,AC Steckdose Typ 2,AC Steckdose Typ 2,,,22,22,,,2,13.2879059999992,52.5136949999968
"14197",Wiesbadener Straße 53-55,Charlottenburg-Wilmersdorf,DC Kupplung Combo,AC Steckdose Typ 2,,,50,22,,,2,13.3016639999993,52.4739789999968
"14197",Wiesbadener Straße 53-55,Charlottenburg-Wilmersdorf,DC Kupplung Combo,DC Kupplung Combo,,,150,75,,,2,13.3015609999993,52.4739919999967
"14197",Wiesbadener Straße 53-55,Charlottenburg-Wilmersdorf,DC Kupplung Combo,AC Steckdose Typ 2,,,50,22,,,2,13.3015219999993,52.4739969999967
"14197",Steinrückweg 10,Charlottenburg-Wilmersdorf,AC Steckdose Typ 2,AC Steckdose Typ 2,,,22,22,,,2,13.3120779957511,52.4675952745556
"14197",Steinrüceg 10,Charlottenburg-Wilmersdorf,AC Steckdose Typ 2,AC Steckdose Typ 2,,,22,22,,,2,13.3125169999993,52.4674269999968
"13583",Dallgower Str. 2,Spandau,AC Steckdose Typ 2,AC Steckdose Typ 2,,,22,22,,,2,13.1874619999989,52.5368479999965
"13593",Sandstr. 60,Spandau,AC Steckdose Typ 2,AC Steckdose Typ 2,,,11,11,,,2,13.1696299999989,52.5182239999964
"13593",Obstallee 28,Spandau,AC Steckdose Typ 2,AC Steckdose Typ 2,,,11,11,,,2,13.1642939999989,52.5214559999964
"13593",Pillnitzer Weg 1,Spandau,AC Steckdose Typ 2,AC Steckdose Typ 2,,,22,22,,,2,13.1560199999988,52.5218729999963
"13591",Barmbeker Weg 1,Spandau,AC Steckdose Typ 2,AC Steckdose Typ 2,,,22,22,,,2,13.1545359999989,52.5333169999963
"13591",Schulstr. 1,Spandau,AC Steckdose Typ 2,,,,3,,,,1,13.1398699999988,52.5293849999963
"13581",Seecktstraße ggü. 7,Spandau,AC Steckdose Typ 2,,,,3,,,,1,13.190491028499,52.5270303474965
"13581",Seecktstraße ggü. 5,Spandau,AC Steckdose Typ 2,,,,3,,,,1,13.1899634999989,52.5271783999965
"13581",Seecktstraße schräg neben Hausnr. 2,Spandau,AC Steckdose Typ 2,,,,3,,,,1,13.1890768999989,52.5274267999965
"13583",Zweibrücker Straße 48,Spandau,AC Steckdose Typ 2,,,,3,,,,1,13.1886669199989,52.5459182699964
"13583",Zweibrücker Straße 40,Spandau,AC Steckdose Typ 2,,,,3,,,,1,13.188543269999,52.5453831099965
"13589",Pionierstraße 79,Spandau,AC Steckdose Typ 2,,,,3,,,,1,13.1812471011989,52.5526635331965
"13589",Pionierstraße 79,Spandau,AC Steckdose Typ 2,,,,3,,,,1,13.1809819250989,52.5527344267965
"13589",Pionierstraße Zwischen 79 und 89,Spandau,AC Steckdose Typ 2,,,,3,,,,1,13.180719588399,52.5528087409965
"13581",Johannastraße 35,Spandau,AC Steckdose Typ 2,,,,3,,,,1,13.178279999999,52.5291099999965
"13583",Dyrotzer Straße 32,Spandau,AC Steckdose Typ 2,,,,3,,,,1,13.1707199999988,52.5399899999964
"13595",Adamstraße 28,Spandau,AC Steckdose Typ 2,,,,3,,,,1,13.189304719399,52.5208906050965
"0",Eichholzbahn ggü. 116,Spandau,AC Steckdose Typ 2,,,,3,,,,1,13.1445599999988,52.5377299999963
"13591",Hauptstraße 14,Spandau,AC Steckdose Typ 2,,,,3,,,,1,13.1390599999987,52.5307099999963
"13583",Zweibrücker Straße 86,Spandau,AC Steckdose Typ 2,AC Steckdose Typ 2,,,22,22,,,2,13.1893299999989,52.5489699999965
"13593",Reclamweg 2,Spandau,AC Steckdose Typ 2,AC Steckdose Typ 2,,,22,22,,,2,13.1752699999989,52.5202099999964
"13593",Obstallee 3,Spandau,AC Steckdose Typ 2,AC Steckdose Typ 2,,,22,22,,,2,13.1702779999989,52.5203559999964
"0",Borkzeile 7,Spandau,AC Steckdose Typ 2,AC Steckdose Typ 2,,,22,22,,,2,13.1898164245403,52.5374803185047
"0",Griesinger Str. 29,Spandau,AC Steckdose Typ 2,AC Steckdose Typ 2,,,22,22,,,2,13.1542580999988,52.5634920999964
"13583",Falkenseer Chaussee 259,Spandau,AC Steckdose Typ 2,AC Steckdose Typ 2,,,22,22,,,2,13.1834809999989,52.5474919999964
"13581",Brunsbütteler Damm 153,Spandau,AC Steckdose Typ 2,AC Steckdose Typ 2,,,22,22,,,2,13.1743559999989,52.5336759999965
"13595",Adamstraße 27,Spandau,AC Steckdose Typ 2,,,,3,,,,1,13.1885147354989,52.5208854329964
"0",Filmwerkeweg  1,Spandau,AC Steckdose Typ 2,,,,3,,,,1,13.1479599999987,52.5331699999962
"13581",Brunsbütteler Damm 144,Spandau,DC Kupplung Combo,DC Kupplung Combo,,,150,150,,,2,13.1758899999989,52.5341099999964
"13581",Brunsbütteler Damm 144,Spandau,DC Kupplung Combo,DC Kupplung Combo,,,300,300,,,2,13.1758899999989,52.5341099999964
"13581",Brunsbütteler Damm 57,Spandau,AC Kupplung Typ 2,"DC Kupplung Combo, DC CHAdeMO",,,43,50,,,2,13.1891299999988,52.5333799999965
"13581",Seeburger Str. 27,Spandau,AC Steckdose Typ 2,AC Steckdose Typ 2,,,22,22,,,2,13.1830397490728,52.5290275159324
"13581",Seeburger Straße 27,Spandau,AC Steckdose Typ 2,AC Steckdose Typ 2,,,22,22,,,2,13.1832172299989,52.5286972999964
"13581",Seeburger Straße 27,Spandau,AC Kupplung Typ 2,AC Kupplung Typ 2,,,22,22,,,2,13.1830236599989,52.5284637399965
"13581",Seeburger Straße 27,Spandau,AC Kupplung Typ 2,AC Kupplung Typ 2,,,22,22,,,2,13.1846570999989,52.5279684999965
"13581",Seeburger Straße 27,Spandau,AC Kupplung Typ 2,AC Kupplung Typ 2,,,22,22,,,2,13.1849378999989,52.5277434999965
"13591",Seegefelder Weg 391,Spandau,AC Steckdose Typ 2,AC Steckdose Typ 2,,,22,22,,,2,13.1431699999987,52.5461399999963
"13593",Wilhelmstr. 21-25,Spandau,"AC Steckdose Typ 2, AC Kupplung Typ 2","AC Steckdose Typ 2, AC Kupplung Typ 2, DC CHAdeMO","AC Steckdose Typ 2, DC Kupplung Combo",,22,180,180,,3,13.185439999999,52.5206299999965
"13591",Seegefelder Weg  391,Spandau,"AC Steckdose Typ 2, AC Kupplung Typ 2","AC Kupplung Typ 2, DC Kupplung Combo","AC Kupplung Typ 2, DC CHAdeMO",,22,50,50,,3,13.1428390999988,52.5462245999963
"13403",Graf-Haeseler-Str. 24,Reinickendorf,AC Steckdose Typ 2,AC Steckdose Typ 2,,,11,11,,,2,13.3137859999993,52.5695659999968
"10589",Klaustaler Str. 34,Charlottenburg-Wilmersdorf,AC Steckdose Typ 2,AC Steckdose Typ 2,,,11,11,,,2,13.3134849999992,52.5244289999969
"10587",Arcostr. 20,Charlottenburg-Wilmersdorf,AC Steckdose Typ 2,AC Steckdose Typ 2,,,11,11,,,2,13.3086269999992,52.5199689999968
"10589",Nordhauser Str. 26,Charlottenburg-Wilmersdorf,AC Steckdose Typ 2,AC Steckdose Typ 2,,,11,11,,,2,13.3071679999992,52.5245959999968
"10589",Lise-Meitner-Str. 25,Charlottenburg-Wilmersdorf,AC Steckdose Typ 2,AC Steckdose Typ 2,,,11,11,,,2,13.3061599999993,52.5302559999969
"10589",Osnabrücker Str. 26,Charlottenburg-Wilmersdorf,AC Steckdose Typ 2,AC Steckdose Typ 2,,,11,11,,,2,13.3010829999992,52.5258639999968
"10589",Tauroggener Str. 47,Charlottenburg-Wilmersdorf,AC Steckdose Typ 2,AC Steckdose Typ 2,,,11,11,,,2,13.3005449999993,52.5229939999969
"10587",Charlottenburger Ufer 1,Charlottenburg-Wilmersdorf,AC Steckdose Typ 2,AC Steckdose Typ 2,,,22,22,,,2,13.3002889999992,52.5212199999969
"14059",Heubnerweg 6,Charlottenburg-Wilmersdorf,AC Steckdose Typ 2,AC Steckdose Typ 2,,,11,11,,,2,13.2886929999993,52.5233749999967
"13627",Heilmannring 55,Charlottenburg-Wilmersdorf,AC Steckdose Typ 2,AC Steckdose Typ 2,,,11,11,,,2,13.2862399999992,52.5351219999967
"14050",Eschenallee 1,Charlottenburg-Wilmersdorf,AC Steckdose Typ 2,AC Steckdose Typ 2,,,11,11,,,2,13.2694719999991,52.5197449999967
"14052",Gotha-Allee 17,Charlottenburg-Wilmersdorf,AC Steckdose Typ 2,AC Steckdose Typ 2,,,11,11,,,2,13.2585969999992,52.5204619999966
"13599",Burscheider Weg 5,Spandau,AC Steckdose Typ 2,AC Steckdose Typ 2,,,22,22,,,2,13.2393869999991,52.5449659999966
"13599",Romy-Schneider-Str. 11,Spandau,AC Steckdose Typ 2,AC Steckdose Typ 2,,,11,11,,,2,13.2252499999991,52.5460199999966
"13587",Hugo-Cassierer-Str. 24,Spandau,AC Steckdose Typ 2,AC Steckdose Typ 2,,,11,11,,,2,13.218401999999,52.5574209999966
"13597",Schürstr. 17,Spandau,AC Steckdose Typ 2,AC Steckdose Typ 2,,,11,11,,,2,13.2078079999989,52.5329219999965
"13585",Jagowstr. 4,Spandau,AC Steckdose Typ 2,AC Steckdose Typ 2,,,11,11,,,2,13.207648999999,52.5467159999966
"13587",Michelstadter Weg 85,Spandau,AC Steckdose Typ 2,AC Steckdose Typ 2,,,11,11,,,2,13.2072239999989,52.5648569999965
"13597",Stresowplatz 2,Spandau,AC Steckdose Typ 2,AC Steckdose Typ 2,,,22,22,,,2,13.2061099999989,52.5335699999966
"13585",Feldstr. 51,Spandau,AC Steckdose Typ 2,AC Steckdose Typ 2,,,11,11,,,2,13.2050209999989,52.5433949999966
"13585",Hedwigstr. 8,Spandau,AC Steckdose Typ 2,AC Steckdose Typ 2,,,22,22,,,2,13.203793999999,52.5489739999965
"13597",Mauerstr. 10,Spandau,AC Steckdose Typ 2,AC Steckdose Typ 2,,,11,11,,,2,13.2031129999989,52.5352619999965
"13597",Viktoria-Ufer 9,Spandau,AC Steckdose Typ 2,AC Steckdose Typ 2,,,22,22,,,2,13.202519999999,52.5387699999966
"13585",Bismarckstr. 14,Spandau,AC Steckdose Typ 2,AC Steckdose Typ 2,,,11,11,,,2,13.201161999999,52.5430919999965
"13585",Mittelstr. 14,Spandau,AC Steckdose Typ 2,AC Steckdose Typ 2,,,11,11,,,2,13.199896999999,52.5484689999964
"13597",Moritzstr. 11,Spandau,AC Steckdose Typ 2,AC Steckdose Typ 2,,,11,11,,,2,13.199347999999,52.5390109999965
"13595",Franzstr. 4,Spandau,AC Steckdose Typ 2,AC Steckdose Typ 2,,,11,11,,,2,13.1984689999989,52.5220559999965
"13581",Straßburger Str. 30,Spandau,AC Steckdose Typ 2,AC Steckdose Typ 2,,,22,22,,,2,13.1968899999989,52.5284199999965
"13581",Wilhelmshavener Str. 27,Spandau,AC Steckdose Typ 2,AC Steckdose Typ 2,,,11,11,,,2,13.1954879999989,52.5332439999965
"13629",Ohmstraße 7,Spandau,AC Steckdose Typ 2,,,,3,,,,1,13.2730199999992,52.5353799999967
"13629",Ohmstraße 9,Spandau,AC Steckdose Typ 2,,,,3,,,,1,13.2728040899992,52.5349502299968
"13629",Wernerwerkdamm 25,Spandau,AC Steckdose Typ 2,,,,3,,,,1,13.2724413395991,52.5347974788967
"13629",Wernerwerkdamm 26,Spandau,AC Steckdose Typ 2,,,,3,,,,1,13.2715363692991,52.5349678092968
"13629",Wernerwerkdamm 29,Spandau,AC Steckdose Typ 2,,,,3,,,,1,13.2692600796992,52.5353114164968
"13629",Wernerwerkdamm 30,Spandau,AC Steckdose Typ 2,,,,3,,,,1,13.2684262765991,52.5354065495968
"13629",Wernerwerkdamm Ecke Quellweg 10,Spandau,AC Steckdose Typ 2,,,,3,,,,1,13.2680214855992,52.5354534901968
"13629",Motardstraße ggü. Gebäude A11,Spandau,AC Steckdose Typ 2,,,,3,,,,1,13.2640242513991,52.5340798596968
"13629",Motardstraße ggü. 27,Spandau,AC Steckdose Typ 2,,,,3,,,,1,13.2618839502991,52.5342732255968
"13629",Motardstraße ggü. 22D,Spandau,AC Steckdose Typ 2,,,,3,,,,1,13.2614102191992,52.5343099556967
"13599",Faucherweg bei Hausnr. 29 / Ecke Gorgasring,Spandau,AC Steckdose Typ 2,,,,3,,,,1,13.2344315747991,52.5405986738967
"13585",Parkstraße LM20,Spandau,AC Steckdose Typ 2,,,,3,,,,1,13.2135099999989,52.5512099999965
"13585",Parkstraße LM18,Spandau,AC Steckdose Typ 2,,,,3,,,,1,13.2132599999989,52.5507499999966
"13587",Mertensstraße 33 (ggü. Pepitapromenade),Spandau,AC Steckdose Typ 2,,,,3,,,,1,13.212906571299,52.5649684303966
"13585",Parkstraße 41,Spandau,AC Steckdose Typ 2,,,,3,,,,1,13.212844107699,52.5499886404966
"13587",Mertensstraße 23 (ggü. Hausnr. 20),Spandau,AC Steckdose Typ 2,,,,3,,,,1,13.2124618563989,52.5650162996966
"13587",Mertensstraße 17,Spandau,AC Steckdose Typ 2,,,,3,,,,1,13.211987646799,52.5650640638966
"13587",Eschenweg 8,Spandau,AC Steckdose Typ 2,,,,3,,,,1,13.209766638999,52.5686041912966
"13585",Lynarstraße 7,Spandau,AC Steckdose Typ 2,,,,3,,,,1,13.208082667599,52.5489293135966
"13585",Lynarstraße 36,Spandau,AC Steckdose Typ 2,,,,3,,,,1,13.207660427399,52.5487980155965
"13585",Lynarstraße 32 (Netto-Markt),Spandau,AC Steckdose Typ 2,,,,3,,,,1,13.2067561452989,52.5487453812966
"13587",Wichernstraße 13,Spandau,AC Steckdose Typ 2,,,,3,,,,1,13.2066034666989,52.5670918528966
"13587",Schlehenweg 7,Spandau,AC Steckdose Typ 2,,,,3,,,,1,13.2064499999989,52.5682799999966
"13597",Stresowplatz 16A,Spandau,AC Steckdose Typ 2,,,,3,,,,1,13.206418281199,52.5333259166965
"13587",Wichernstraße 14 (Gemeindehaus),Spandau,AC Steckdose Typ 2,,,,3,,,,1,13.206251168899,52.5673040319966
"13597",Stresowplatz 15,Spandau,AC Steckdose Typ 2,,,,3,,,,1,13.206038041599,52.5333219511966
"13597",Stresowplatz zwischen 13 und 14,Spandau,AC Steckdose Typ 2,,,,3,,,,1,13.2058098302989,52.5333139956966
"13597",Stresowplatz zwischen 4 und 5,Spandau,AC Steckdose Typ 2,,,,3,,,,1,13.205716481499,52.5334699277966
"13585",Askanierring 97,Spandau,AC Steckdose Typ 2,,,,3,,,,1,13.205154162999,52.5541277370966
"13587",Wichernstraße 29,Spandau,AC Steckdose Typ 2,,,,3,,,,1,13.2049567795989,52.5680969812965
"13585",Askanierring 99,Spandau,AC Steckdose Typ 2,,,,3,,,,1,13.204623321499,52.5541348301965
"13585",Bismarckstraße 4,Spandau,AC Steckdose Typ 2,,,,3,,,,1,13.204622898999,52.5420985444966
"13585",Bismarckstraße 62,Spandau,AC Steckdose Typ 2,,,,3,,,,1,13.204099999999,52.5421499999966
"13585",Bismarckstraße 7,Spandau,AC Steckdose Typ 2,,,,3,,,,1,13.2037782522989,52.5423669601965
"13585",Bismarckstraße Ecke Groenerstr. 14,Spandau,AC Steckdose Typ 2,,,,3,,,,1,13.202991038899,52.5426139312965
"13585",Falkenhagener Straße 63,Spandau,AC Steckdose Typ 2,,,,3,,,,1,13.2028593876989,52.5448754802965
"13585",Feldstraße 43,Spandau,AC Steckdose Typ 2,,,,3,,,,1,13.202462609799,52.5443588355966
"13585",Lynarstraße 17,Spandau,AC Steckdose Typ 2,,,,3,,,,1,13.202375841199,52.5486047672966
"13581",Krowelstraße zw. 5 und 7,Spandau,AC Steckdose Typ 2,,,,3,,,,1,13.2016983092989,52.5241215911965
"13581",Krowelstraße ggü. Kreuzung Brüderstr.,Spandau,AC Steckdose Typ 2,,,,3,,,,1,13.201462485199,52.5243722270965
"13585",Falkenhagener Straße 14,Spandau,AC Steckdose Typ 2,,,,3,,,,1,13.2013846954989,52.5456931693965
"13585",Lynarstraße zwischen 20 und 21,Spandau,AC Steckdose Typ 2,,,,3,,,,1,13.201366708399,52.5485556750966
"13585",Feldstraße 37,Spandau,AC Steckdose Typ 2,,,,3,,,,1,13.201179999999,52.5447399999965
"13587",Askanierring 108,Spandau,AC Steckdose Typ 2,,,,3,,,,1,13.201018652999,52.5541174159965
"13585",Feldstraße 12,Spandau,AC Steckdose Typ 2,,,,3,,,,1,13.200669999999,52.5447099999964
"13587",Askanierring ggü. 70,Spandau,AC Steckdose Typ 2,,,,3,,,,1,13.200432850899,52.5540905927966
"13585",Flankenschanze 4,Spandau,AC Steckdose Typ 2,,,,3,,,,1,13.2004239287989,52.5457613400966
"13585",Flankenschanze 8,Spandau,AC Steckdose Typ 2,,,,3,,,,1,13.2002980474989,52.5454581617966
"13581",Krowelstraße 22,Spandau,AC Steckdose Typ 2,,,,3,,,,1,13.1997503912989,52.5248177767965
"13585",Marschallstraße 11,Spandau,AC Steckdose Typ 2,,,,3,,,,1,13.199409999999,52.5505899999965
"13581",Krowelstraße 21,Spandau,AC Steckdose Typ 2,,,,3,,,,1,13.199321744299,52.5248969836965
"13585",Falkenhagener Straße 22,Spandau,AC Steckdose Typ 2,,,,3,,,,1,13.199164381899,52.5466374168965
"13585",Marschallstraße 9,Spandau,AC Steckdose Typ 2,,,,3,,,,1,13.198979999999,52.5505499999965
"13585",Falkenhagener Straße Zwischen 44 und 45,Spandau,AC Steckdose Typ 2,,,,3,,,,1,13.1985644034989,52.5467520718965
"13585",Marschallstraße 8,Spandau,AC Steckdose Typ 2,,,,3,,,,1,13.198429999999,52.5504799999965
"13585",Falkenhagener Straße Zwischen 26 und 27,Spandau,AC Steckdose Typ 2,,,,3,,,,1,13.198290933399,52.5469910345965
"13585",Flankenschanze Auf Höhe Kirche,Spandau,AC Steckdose Typ 2,,,,3,,,,1,13.1981582014989,52.5402106596964
"13585",Flankenschanze Auf Höhe Kirche,Spandau,AC Steckdose Typ 2,,,,3,,,,1,13.197942622899,52.5404909811964
"13581",Krowelstraße 35,Spandau,AC Steckdose Typ 2,,,,3,,,,1,13.197889686899,52.5258186687965
"13585",Flankenschanze zwischen 48 und 50,Spandau,AC Steckdose Typ 2,,,,3,,,,1,13.197743488099,52.5402774289965
"13581",Krowelstraße 41,Spandau,AC Steckdose Typ 2,,,,3,,,,1,13.1974273174989,52.5262045394965
"13585",Falkenhagener Straße 31,Spandau,AC Steckdose Typ 2,,,,3,,,,1,13.1974117316989,52.5473531872965
"13585",Flankenschanze 46A,Spandau,AC Steckdose Typ 2,,,,3,,,,1,13.197233704299,52.5409262343965
"13585",Falkenhagener Straße 38,Spandau,AC Steckdose Typ 2,,,,3,,,,1,13.196996685599,52.5474120607965
"13587",Askanierring ggü. 61,Spandau,AC Steckdose Typ 2,,,,3,,,,1,13.196772082199,52.5538024315964
"13595",Pichelsdorfer Straße 123,Spandau,AC Steckdose Typ 2,,,,3,,,,1,13.196654707099,52.5258027134964
"13581",Krumme Gärten 7,Spandau,AC Steckdose Typ 2,,,,3,,,,1,13.1926833605989,52.5275111589965
"13581",Krumme Gärten 3,Spandau,AC Steckdose Typ 2,,,,3,,,,1,13.192631898299,52.5272388097965
"13581",Krumme Gärten ggü. 5 (Netto-Markt),Spandau,AC Steckdose Typ 2,,,,3,,,,1,13.192591066499,52.5282465916965
"13581",Krumme Gärten 1,Spandau,AC Steckdose Typ 2,,,,3,,,,1,13.1925340657989,52.5269785031965
"13585",Schäferstraße 25,Spandau,AC Steckdose Typ 2,AC Steckdose Typ 2,,,22,22,,,2,13.212949999999,52.5518999999966
"13587",Goltzstraße ggü. 69,Spandau,AC Steckdose Typ 2,,,,11,,,,1,13.210039999999,52.5598299999966
"13587",Goltzstraße ggü. 69,Spandau,AC Steckdose Typ 2,,,,11,,,,1,13.210039999999,52.5598299999966
"13585",Kurstraße 19,Spandau,AC Steckdose Typ 2,,,,11,,,,1,13.2082374252036,52.548041298379
"13587",Cautiusstraße 34,Spandau,AC Steckdose Typ 2,,,,11,,,,1,13.204636277413,52.5621684851237
"13587",Cautiusstraße 34,Spandau,AC Steckdose Typ 2,,,,11,,,,1,13.204636277413,52.5621684851237
"13585",Kleine Mittelstraße 8,Spandau,AC Steckdose Typ 2,,,,11,,,,1,13.2008708615196,52.5470145449446
"13585",Kleine Mittelstraße 8,Spandau,AC Steckdose Typ 2,,,,11,,,,1,13.2008708615196,52.5470145449446
"13629",Nonnendammallee 101,Spandau,AC Steckdose Typ 2,AC Steckdose Typ 2,,,22,22,,,2,13.2641174128923,52.5366734753012
"13597",Charlottenburger Chaussee 75,Spandau,AC Steckdose Typ 2,AC Steckdose Typ 2,,,22,22,,,2,13.2273977817526,52.5286042102818
"13587",Hugo-Cassirer-Straße 37,Spandau,AC Steckdose Typ 2,AC Steckdose Typ 2,,,22,22,,,2,13.218295999999,52.5582209999966
"13599",Zitadellenweg 34,Spandau,AC Steckdose Typ 2,AC Steckdose Typ 2,,,22,22,,,2,13.217493999999,52.5381699999966
"13597",Ruhlebener Str. 161,Spandau,AC Steckdose Typ 2,AC Steckdose Typ 2,,,22,22,,,2,13.217281999999,52.5264199999966
"13597",Am Juliusturm 106,Spandau,AC Steckdose Typ 2,AC Steckdose Typ 2,,,22,22,,,2,13.2046499999989,52.5401559999966
"13585",Hohenzollernring 117,Spandau,AC Steckdose Typ 2,AC Steckdose Typ 2,,,22,22,,,2,13.1982589999989,52.5556909999965
"13581",Brunsbütteler Damm 4,Spandau,AC Steckdose Typ 2,AC Steckdose Typ 2,,,22,22,,,2,13.196932999999,52.5333169999965
"0",Askanierring  zwischen 95 und 96,Spandau,AC Steckdose Typ 2,,,,3,,,,1,13.205660960599,52.5541295425965
"13585",Falkenhagener Straße 4,Spandau,AC Steckdose Typ 2,,,,3,,,,1,13.2032456734989,52.5447435731966
"13585",Falkenhagener Straße 7,Spandau,AC Steckdose Typ 2,,,,3,,,,1,13.202710896099,52.5451117629964
"13585",Falkenhagener Straße 57,Spandau,AC Steckdose Typ 2,,,,3,,,,1,13.201672233099,52.5454689180965
"13585",Falkenhagener Straße 53,Spandau,AC Steckdose Typ 2,,,,3,,,,1,13.200924683099,52.5457701196966
"13585",Falkenhagener Straße 37,Spandau,AC Steckdose Typ 2,,,,3,,,,1,13.1962862693989,52.5477081108965
"13597",Pichelswerderstr. 6,Spandau,"AC Steckdose Typ 2, AC Kupplung Typ 2","AC Kupplung Typ 2, DC Kupplung Combo","AC Kupplung Typ 2, DC CHAdeMO",,22,50,50,,3,13.2139501574918,52.5290794370891
"13629",Nonnendamm 62-64,Spandau,AC Steckdose Typ 2,AC Steckdose Typ 2,,,11,11,,,2,13.2557497019101,52.5371208193174
"13597",Charlottenburger Chaussee 18,Spandau,"AC Steckdose Typ 2, AC Kupplung Typ 2",AC Kupplung Typ 2,"AC Kupplung Typ 2, DC Kupplung Combo",,22,43,43,,3,13.2414798737902,52.5263214110465
"10589",Lise-Meitner-Straße 10,Charlottenburg-Wilmersdorf,DC Kupplung Combo,DC Kupplung Combo,AC Steckdose Typ 2,,150,100,22,,3,13.3075899999993,52.5286699999969
"10589",Kaiserin-Augusta-Allee 31,Charlottenburg-Wilmersdorf,AC Steckdose Typ 2,AC Steckdose Typ 2,,,22,22,,,2,13.3136605999993,52.5268093999969
"10589",Kaiserin-Augusta-Allee 31,Charlottenburg-Wilmersdorf,AC Steckdose Typ 2,AC Steckdose Typ 2,,,22,22,,,2,13.3137022999992,52.5268117999969
"10589",Kaiserin-Augusta-Allee 31,Charlottenburg-Wilmersdorf,AC Steckdose Typ 2,AC Steckdose Typ 2,,,22,22,,,2,13.3138255999993,52.5268290999968
"10589",Kaiserin-Augusta-Allee 31,Charlottenburg-Wilmersdorf,AC Steckdose Typ 2,AC Steckdose Typ 2,,,22,22,,,2,13.3138786999993,52.5268301999968
"10589",Lise-Meitner-Str. 6,Charlottenburg-Wilmersdorf,AC Steckdose Typ 2,AC Steckdose Typ 2,,,22,22,,,2,13.3065509999993,52.5270419999969
"13599",Am Juliusturm 14-38,Spandau,AC Steckdose Typ 2,,,,3,,,,1,13.223298199999,52.5396771999965
"13599",Gartenfelder Straße 37,Spandau,AC Steckdose Typ 2,AC Steckdose Typ 2,,,22,22,,,2,13.2532399999992,52.5492239999967
"13599",Gartenfelder Straße 37,Spandau,AC Steckdose Typ 2,AC Steckdose Typ 2,,,22,22,,,2,13.2532889999992,52.5492209999967
"13585",Neue Bergstraße 6,Spandau,AC Steckdose Typ 2,AC Steckdose Typ 2,,,22,22,,,2,13.209050999999,52.5494719999965
"13585",Neue Bergstraße 6,Spandau,AC Steckdose Typ 2,AC Steckdose Typ 2,,,22,22,,,2,13.208857999999,52.5494569999966
"13599",Gartenfelder Straße 37,Spandau,AC Steckdose Typ 2,AC Steckdose Typ 2,,,22,22,,,2,13.2531809999991,52.5492269999967
"13405",Scharnweberstraße 79-81,Reinickendorf,"DC Kupplung Combo, DC CHAdeMO",,,,175,,,,1,13.3082759999993,52.5678519999968
"13405",Scharnweberstraße 79-81,Reinickendorf,"DC Kupplung Combo, DC CHAdeMO",,,,175,,,,1,13.3082759999993,52.5678519999968
"13405",Scharnweberstr. 79/81,Reinickendorf,DC Kupplung Combo,DC Kupplung Combo,,,360,360,,,2,13.3099059999992,52.5677919999968
"13599",Zitadellenweg 30 - 70,Spandau,AC Steckdose Typ 2,AC Steckdose Typ 2,,,22,22,,,2,13.2182899999991,52.5406479999966
"13599",Am Juliusturm 14-38,Spandau,AC Steckdose Typ 2,,,,3,,,,1,13.2232984999991,52.5396774999966
"13581",Brunsbütteler Damm 40,Spandau,"DC Kupplung Combo, DC CHAdeMO",AC Kupplung Typ 2,,,50,43,,,2,13.1927409999989,52.5341659999964
"13583",Askanierring 40,Spandau,DC Kupplung Combo,DC Kupplung Combo,,,150,150,,,2,13.194248999999,52.5476499999965
"13583",Askanierring 40,Spandau,DC Kupplung Combo,DC Kupplung Combo,,,150,150,,,2,13.194248999999,52.5476499999965
"13585",Fehrbelliner Strasse 0,Spandau,AC Steckdose Typ 2,AC Steckdose Typ 2,,,22,22,,,2,13.1984647999989,52.5535152999966
"13587",Streitstraße 18,Spandau,AC Steckdose Typ 2,AC Steckdose Typ 2,,,11,11,,,2,13.209751999999,52.5588709999966
"13597",An den Freiheitswiesen 6,Spandau,DC Kupplung Combo,DC Kupplung Combo,,,150,150,,,2,13.218729999999,52.5293099999965
"13597",An den Freiheitswiesen 6,Spandau,DC Kupplung Combo,DC Kupplung Combo,,,300,300,,,2,13.218729999999,52.5293099999965
"13597",Charlottenburger Chaussee 49,Spandau,DC Kupplung Combo,DC Kupplung Combo,,,150,150,,,2,13.2330099999991,52.5265329999967
"13597",Ruhlebener Strasse 23,Spandau,AC Kupplung Typ 2,"DC Kupplung Combo, DC CHAdeMO",,,22,20,,,2,13.216795999999,52.5283249999966
"13597",Ruhrlebenerstrasse 23,Spandau,AC Kupplung Typ 2,"DC Kupplung Combo, DC CHAdeMO",,,22,20,,,2,13.216795999999,52.5283249999966
"13597",Ruhlebener Strasse 23,Spandau,AC Kupplung Typ 2,"DC Kupplung Combo, DC CHAdeMO",,,22,20,,,2,13.216795999999,52.5283249999966
"13599",Zitadellenweg 23-27,Spandau,AC Kupplung Typ 2,AC Kupplung Typ 2,,,22,22,,,2,13.221847799999,52.5388317999965
"13599",Am Juliusturm 14-38,Spandau,AC Steckdose Typ 2,,,,3,,,,1,13.222903999999,52.5377499999965
"13599",Am Juliusturm 14-38,Spandau,AC Steckdose Typ 2,,,,3,,,,1,13.222900999999,52.5377509999966
"13599",Am Juliusturm 14-38,Spandau,AC Steckdose Typ 2,,,,3,,,,1,13.222901999999,52.5377489999966
"13599",Am Juliusturm 14-38,Spandau,AC Steckdose Typ 2,,,,3,,,,1,13.222902999999,52.5377469999965
"13599",Am Juliusturm 14-38,Spandau,AC Steckdose Typ 2,,,,3,,,,1,13.2229059999991,52.5377449999966
"13599",Am Juliusturm 14-38,Spandau,AC Steckdose Typ 2,,,,3,,,,1,13.222908999999,52.5377429999966
"13599",Am Juliusturm 14-38,Spandau,AC Steckdose Typ 2,,,,3,,,,1,13.223298099999,52.5396770999966
"13599",Am Juliusturm 14-38,Spandau,AC Steckdose Typ 2,,,,3,,,,1,13.2232982999991,52.5396772999966
"13599",Am Juliusturm 14-38,Spandau,AC Steckdose Typ 2,,,,3,,,,1,13.223298399999,52.5396773999966
"13599",Am Juliusturm 14-38,Spandau,AC Steckdose Typ 2,,,,3,,,,1,13.223298599999,52.5396775999966
"13599",Am Juliusturm 14-38,Spandau,AC Steckdose Typ 2,,,,3,,,,1,13.2232986999991,52.5396776999966
"13599",Am Juliusturm 14-38,Spandau,AC Steckdose Typ 2,,,,3,,,,1,13.223298799999,52.5396777999965
"13599",Am Juliusturm 14-38,Spandau,AC Steckdose Typ 2,,,,3,,,,1,13.2232988999991,52.5396778999965
"13599",Am Juliusturm 14-38,Spandau,AC Steckdose Typ 2,,,,3,,,,1,13.223298999999,52.5396779999966
"13599",Am Juliusturm 14-38,Spandau,AC Steckdose Typ 2,,,,3,,,,1,13.223297999999,52.5392269999966
"13599",Am Juliusturm 14-38,Spandau,AC Steckdose Typ 2,,,,3,,,,1,13.223299099999,52.5392280999966
"13599",Am Juliusturm 14-38,Spandau,AC Steckdose Typ 2,,,,3,,,,1,13.223055999999,52.5377409999966
"13599",Am Juliusturm 14-38,Spandau,AC Steckdose Typ 2,,,,3,,,,1,13.223057999999,52.5377389999966
"13599",Nonnendammallee 175,Spandau,"AC Steckdose Typ 2, AC Kupplung Typ 2","AC Steckdose Typ 2, DC Kupplung Combo","AC Steckdose Typ 2, AC Kupplung Typ 2, DC CHAdeMO",,22,50,50,,3,13.2333749999991,52.5397209999966
"13599",Nonnendammallee 1,Spandau,AC Steckdose Typ 2,DC Kupplung Combo,,,11,22,,,2,13.233249999999,52.5379309999966
"13599",Am Juliusturm 33,Spandau,"DC Kupplung Combo, DC CHAdeMO",,,,175,,,,1,13.221624999999,52.5366399999966
"13599",Am Juliusturm 33,Spandau,"DC Kupplung Combo, DC CHAdeMO",,,,175,,,,1,13.221624999999,52.5366399999966
"13627",Reichweindamm 6,Charlottenburg-Wilmersdorf,AC Steckdose Typ 2,AC Steckdose Typ 2,,,11,11,,,2,13.3001259999992,52.5355489999969
"13629",Siemensdamm 59-62,Spandau,AC Steckdose Typ 2,,,,11,,,,1,13.2790729999992,52.5331899999967
"14059",Sophie-Charlotten-Straße 7,Charlottenburg-Wilmersdorf,DC Kupplung Combo,AC Steckdose Typ 2,,,22,11,,,2,13.2856519999991,52.5216629999967
"14597",Pichelswerderstr. 6,Spandau,"AC Steckdose Typ 2, AC Kupplung Typ 2","AC Steckdose Typ 2, DC Kupplung Combo","AC Steckdose Typ 2, AC Kupplung Typ 2, DC CHAdeMO",,22,50,50,,3,13.213126999999,52.5298999999966
"13599",Am Juliusturm 40-46,Spandau,"AC Steckdose Typ 2, AC Kupplung Typ 2","AC Kupplung Typ 2, DC Kupplung Combo","AC Kupplung Typ 2, DC CHAdeMO",,22,50,50,,3,13.218929999999,52.5375599999966
"10249",Matthiasstr. 3,Friedrichshain-Kreuzberg,AC Steckdose Typ 2,AC Steckdose Typ 2,,,11,11,,,2,13.4402049999995,52.523054999997
"10409",Naugarder Str. 1,Pankow,AC Steckdose Typ 2,AC Steckdose Typ 2,,,11,11,,,2,13.4389609999995,52.542084999997
"10409",Hosemannstr. 39,Pankow,AC Steckdose Typ 2,AC Steckdose Typ 2,,,11,11,,,2,13.4386319999995,52.5470149999971
"10407",Bötzowstr. 53,Pankow,AC Steckdose Typ 2,AC Steckdose Typ 2,,,11,11,,,2,13.4368549999996,52.5338059999971
"10407",Liselotte-Herrmann-Str. 8,Pankow,AC Steckdose Typ 2,AC Steckdose Typ 2,,,11,11,,,2,13.4346949999995,52.531794999997
"10409",Erich-Weinert-Str. 104,Pankow,AC Steckdose Typ 2,AC Steckdose Typ 2,,,11,11,,,2,13.4344759999995,52.545885999997
"10407",Pasteurstr. 12,Pankow,AC Steckdose Typ 2,AC Steckdose Typ 2,,,11,11,,,2,13.4329549999995,52.533673999997
"13086",Brauhausstr. 4,Pankow,AC Steckdose Typ 2,AC Steckdose Typ 2,,,11,11,,,2,13.4318969999995,52.5556409999971
"10405",Chodowieckistr. 1,Pankow,AC Steckdose Typ 2,AC Steckdose Typ 2,,,11,11,,,2,13.4318589999996,52.535617999997
"10407",Hufelandstr. 13,Pankow,AC Steckdose Typ 2,AC Steckdose Typ 2,,,11,11,,,2,13.4314119999996,52.5322359999971
"10407",Bötzowstr. 2,Pankow,AC Steckdose Typ 2,AC Steckdose Typ 2,,,11,11,,,2,13.4311809999995,52.5293209999971
"10409",Erich-Weinert-Str. 95,Pankow,AC Steckdose Typ 2,AC Steckdose Typ 2,,,11,11,,,2,13.4303279999995,52.547300999997
"10439",Krügerstr. 25,Pankow,AC Steckdose Typ 2,AC Steckdose Typ 2,,,11,11,,,2,13.4292479999996,52.5505699999971
"10249",Büschingstr. 1,Friedrichshain-Kreuzberg,AC Steckdose Typ 2,AC Steckdose Typ 2,,,11,11,,,2,13.4289949999996,52.525625999997
"10407",Käthe-Niederkirchner-Str. 1,Pankow,AC Steckdose Typ 2,AC Steckdose Typ 2,,,11,11,,,2,13.4285449999994,52.531840999997
"10405",Fröbelstr. 15,Pankow,AC Steckdose Typ 2,AC Steckdose Typ 2,,,11,11,,,2,13.4281279999994,52.539948999997
"10439",Kanzowstr. 1,Pankow,AC Steckdose Typ 2,AC Steckdose Typ 2,,,22,22,,,2,13.4271139999994,52.545080999997
"13189",Kissingenstr. 26,Pankow,AC Steckdose Typ 2,AC Steckdose Typ 2,,,11,11,,,2,13.4259859999995,52.567805999997
"10439",Erich-Weinert-Str. 74,Pankow,AC Steckdose Typ 2,AC Steckdose Typ 2,,,11,11,,,2,13.4257679999994,52.548727999997
"10405",Immanuelkirchstr. 14,Pankow,AC Steckdose Typ 2,AC Steckdose Typ 2,,,11,11,,,2,13.4256769999995,52.531939999997
"10439",Wichertstr. 34,Pankow,AC Steckdose Typ 2,AC Steckdose Typ 2,,,11,11,,,2,13.4249879999996,52.546750999997
"10405",Chodowieckistr. 22,Pankow,AC Steckdose Typ 2,AC Steckdose Typ 2,,,11,11,,,2,13.4241439999995,52.538293999997
"13189",Neumannstr. 2,Pankow,AC Steckdose Typ 2,AC Steckdose Typ 2,,,11,11,,,2,13.4240839999996,52.553229999997
"10437",Raumerstr. 31,Pankow,AC Steckdose Typ 2,AC Steckdose Typ 2,,,11,11,,,2,13.4226669999994,52.541605999997
"10437",Dunckerstr. 70,Pankow,AC Steckdose Typ 2,AC Steckdose Typ 2,,,11,11,,,2,13.4226539999994,52.544772999997
"10405",Heinrich-Roller-Str. 21,Pankow,AC Steckdose Typ 2,AC Steckdose Typ 2,,,11,11,,,2,13.4223449999995,52.530952999997
"10178",Mollstr. 30,Mitte,AC Steckdose Typ 2,AC Steckdose Typ 2,,,11,11,,,2,13.4215909999995,52.524782999997
"10405",Wörther Str. 19,Pankow,AC Steckdose Typ 2,AC Steckdose Typ 2,,,11,11,,,2,13.4205149999995,52.535954999997
"10435",Kollwitzstr. 80,Pankow,AC Steckdose Typ 2,AC Steckdose Typ 2,,,11,11,,,2,13.4195609999994,52.537647999997
"10435",Sredzkistr. 35,Pankow,AC Steckdose Typ 2,AC Steckdose Typ 2,,,11,11,,,2,13.4179049999995,52.538371999997
"10437",Raumerstr. 6,Pankow,AC Steckdose Typ 2,AC Steckdose Typ 2,,,11,11,,,2,13.4172279999994,52.543282999997
"10405",Straßburger Str. 26,Pankow,AC Steckdose Typ 2,AC Steckdose Typ 2,,,11,11,,,2,13.4165849999995,52.5322189999971
"13187",Hadlichstr. 33,Pankow,AC Steckdose Typ 2,AC Steckdose Typ 2,,,11,11,,,2,13.4164399999994,52.570510999997
"13189",Max-Lingner-Str. 8,Pankow,AC Steckdose Typ 2,AC Steckdose Typ 2,,,11,11,,,2,13.4162889999995,52.560461999997
"10178",Alexanderstr. 9,Mitte,AC Steckdose Typ 2,AC Steckdose Typ 2,,,11,11,,,2,13.4160219999995,52.521881999997
"10437",Gneiststr. 10,Pankow,AC Steckdose Typ 2,AC Steckdose Typ 2,,,11,11,,,2,13.4153609999994,52.5441739999971
"10405",Kollwitzstr. 35,Pankow,AC Steckdose Typ 2,AC Steckdose Typ 2,,,11,11,,,2,13.4149639999994,52.533699999997
"10439",Paul-Robeson-Str. 50,Pankow,AC Steckdose Typ 2,AC Steckdose Typ 2,,,11,11,,,2,13.4137829999995,52.552102999997
"10435",Sredzkistr. 1,Pankow,AC Steckdose Typ 2,AC Steckdose Typ 2,,,22,22,,,2,13.4127059999995,52.537955999997
"13187",Brennerstr. 90,Pankow,AC Steckdose Typ 2,AC Steckdose Typ 2,,,11,11,,,2,13.4125949999994,52.558691999997
"10178",Weydingerstr. 10,Mitte,AC Steckdose Typ 2,AC Steckdose Typ 2,,,22,22,,,2,13.4125479999995,52.526426999997
"10178",Karl-Liebknecht-Str. 29,Mitte,AC Steckdose Typ 2,AC Steckdose Typ 2,,,11,11,,,2,13.4125099999995,52.524214999997
"10437",Gaudystr. 27,Pankow,AC Steckdose Typ 2,AC Steckdose Typ 2,,,11,11,,,2,13.4124879999995,52.546681999997
"10437",Kopenhagener Str. 77,Pankow,AC Steckdose Typ 2,AC Steckdose Typ 2,,,11,11,,,2,13.4121969999994,52.5485379999971
"10405",Straßburger Str. 2,Pankow,AC Steckdose Typ 2,AC Steckdose Typ 2,,,11,11,,,2,13.4121859999995,52.5284859999971
"10437",Cantianstr. 1,Pankow,AC Steckdose Typ 2,AC Steckdose Typ 2,,,11,11,,,2,13.4117289999994,52.5432669999971
"13187",Kavalierstr. 15,Pankow,AC Steckdose Typ 2,AC Steckdose Typ 2,,,11,11,,,2,13.4103189999994,52.5734919999971
"13187",Schulstr. 28,Pankow,AC Steckdose Typ 2,AC Steckdose Typ 2,,,11,11,,,2,13.4091979999995,52.569110999997
"10119",Christinenstr. 13,Pankow,AC Steckdose Typ 2,AC Steckdose Typ 2,,,22,22,,,2,13.4090559999994,52.531391999997
"10439",Schönfließer Str. 9,Pankow,AC Steckdose Typ 2,AC Steckdose Typ 2,,,11,11,,,2,13.4085189999994,52.553751999997
"10119",Zionskirchstr. 67,Pankow,AC Steckdose Typ 2,AC Steckdose Typ 2,,,11,11,,,2,13.4082409999994,52.532925999997
"10439",Schönfließer Str. 3,Pankow,AC Steckdose Typ 2,AC Steckdose Typ 2,,,11,11,,,2,13.4081769999995,52.550807999997
"10178",Dircksenstr. 38,Mitte,AC Steckdose Typ 2,AC Steckdose Typ 2,,,11,11,,,2,13.4075009999995,52.523430999997
"10119",Alte Schönhauser Str. 20-22,Mitte,AC Steckdose Typ 2,AC Steckdose Typ 2,,,22,22,,,2,13.4072759999994,52.5262049999971
"10435",Oderberger Str. 22,Pankow,AC Steckdose Typ 2,AC Steckdose Typ 2,,,11,11,,,2,13.4068959999994,52.539696999997
"13187",Mühlenstr. 17,Pankow,AC Steckdose Typ 2,AC Steckdose Typ 2,,,11,11,,,2,13.4057789999994,52.566229999997
"10437",Am Falkplatz 5,Pankow,AC Steckdose Typ 2,AC Steckdose Typ 2,,,11,11,,,2,13.4056239999994,52.5468449999971
"10437",Kopenhagener Str. 27,Pankow,AC Steckdose Typ 2,AC Steckdose Typ 2,,,11,11,,,2,13.4045079999995,52.548800999997
"10435",Swinemünder Str. 126,Mitte,AC Steckdose Typ 2,AC Steckdose Typ 2,,,11,11,,,2,13.4033309999995,52.535343999997
"10119",Weinbergsweg 10,Mitte,AC Steckdose Typ 2,AC Steckdose Typ 2,,,11,11,,,2,13.4030039999995,52.5318979999971
"10115",Ruppiner Str. 5,Mitte,AC Steckdose Typ 2,AC Steckdose Typ 2,,,11,11,,,2,13.3997319999994,52.538243999997
"10115",Krausnickstr. 13,Mitte,AC Steckdose Typ 2,AC Steckdose Typ 2,,,11,11,,,2,13.3983149999995,52.525455999997
"10115",Koppenplatz 11,Mitte,AC Steckdose Typ 2,AC Steckdose Typ 2,,,22,22,,,2,13.3972789999995,52.5285129999971
"10115",Anklamer Str. 12,Mitte,AC Steckdose Typ 2,AC Steckdose Typ 2,,,11,11,,,2,13.3971229999994,52.5347019999971
"10115",Ackerstr. 29,Mitte,AC Steckdose Typ 2,AC Steckdose Typ 2,,,22,22,,,2,13.3953699999995,52.532940999997
"10115",Schröderstr. 9,Mitte,AC Steckdose Typ 2,AC Steckdose Typ 2,,,11,11,,,2,13.3943799999994,52.530866999997
"13357",Sonderburger Str. 26,Mitte,AC Steckdose Typ 2,AC Steckdose Typ 2,,,11,11,,,2,13.3940069999995,52.554775999997
"13355",Usedomer Str. 4,Mitte,AC Steckdose Typ 2,AC Steckdose Typ 2,,,11,11,,,2,13.3922399999993,52.5408129999971
"13359",Nordbahnstr. 5,Mitte,AC Steckdose Typ 2,AC Steckdose Typ 2,,,11,11,,,2,13.3918009999994,52.565188999997
"13355",Rügener Str. 26,Mitte,AC Steckdose Typ 2,AC Steckdose Typ 2,,,11,11,,,2,13.3917269999994,52.545026999997
"10115",Borsigstr. 1,Mitte,AC Steckdose Typ 2,AC Steckdose Typ 2,,,11,11,,,2,13.3912719999994,52.528090999997
"13355",Hussitenstr. 76,Mitte,AC Steckdose Typ 2,AC Steckdose Typ 2,,,11,11,,,2,13.3905379999994,52.5364469999971
"13355",Ramlerstr. 1,Mitte,AC Steckdose Typ 2,AC Steckdose Typ 2,,,11,11,,,2,13.3898029999994,52.5471099999969
"13357",Heidebrinker Str. 21,Mitte,AC Steckdose Typ 2,AC Steckdose Typ 2,,,11,11,,,2,13.3882889999994,52.551831999997
"10115",Eichendorffstr. 12,Mitte,AC Steckdose Typ 2,AC Steckdose Typ 2,,,11,11,,,2,13.3869999999995,52.531325999997
"10117",Claire-Waldoff-Str. 6,Mitte,AC Steckdose Typ 2,AC Steckdose Typ 2,,,11,11,,,2,13.3865619999994,52.5248389999969
"10115",Schlegelstr. 28,Mitte,AC Steckdose Typ 2,AC Steckdose Typ 2,,,11,11,,,2,13.3857429999995,52.529822999997
"13355",Gartenstr. 48,Mitte,AC Steckdose Typ 2,AC Steckdose Typ 2,,,11,11,,,2,13.3841689999994,52.536325999997
"10115",Hannoversche Str. 6,Mitte,AC Steckdose Typ 2,AC Steckdose Typ 2,,,11,11,,,2,13.3834749999994,52.527261999997
"13355",Hussitenstr. 34,Mitte,AC Steckdose Typ 2,AC Steckdose Typ 2,,,11,11,,,2,13.3832439999994,52.5419599999969
"13357",Bastianstr. 24,Mitte,AC Steckdose Typ 2,AC Steckdose Typ 2,,,22,22,,,2,13.3819199999994,52.551367999997
"13359",Soldiner Str. 63,Mitte,AC Steckdose Typ 2,AC Steckdose Typ 2,,,22,22,,,2,13.3793799999994,52.560529999997
"10115",Wöhlertstr. 18,Mitte,AC Steckdose Typ 2,AC Steckdose Typ 2,,,11,11,,,2,13.3777849999994,52.5365619999969
"10115",Habersaathstr. 34,Mitte,AC Steckdose Typ 2,AC Steckdose Typ 2,,,11,11,,,2,13.3776199999994,52.531846999997
"10115",Invalidenstr. 44,Mitte,AC Steckdose Typ 2,AC Steckdose Typ 2,,,11,11,,,2,13.3775419999994,52.5292759999969
"13357",Kolberger Str. 30,Mitte,AC Steckdose Typ 2,AC Steckdose Typ 2,,,11,11,,,2,13.3747159999994,52.543990999997
"13357",Pankstr. 72,Mitte,AC Steckdose Typ 2,AC Steckdose Typ 2,,,11,11,,,2,13.3744539999994,52.5481209999969
"13347",Schulzendorfer Str. 26,Mitte,AC Steckdose Typ 2,AC Steckdose Typ 2,,,11,11,,,2,13.3714249999993,52.5401639999969
"13409",Reginhardstr. 32,Mitte,AC Steckdose Typ 2,AC Steckdose Typ 2,,,11,11,,,2,13.3712249999994,52.560528999997
"10115",Kieler Str. 5,Mitte,AC Steckdose Typ 2,AC Steckdose Typ 2,,,11,11,,,2,13.3703169999993,52.534299999997
"10557",Heidestr. 2,Mitte,AC Steckdose Typ 2,AC Steckdose Typ 2,,,11,11,,,2,13.3696289999995,52.5286449999969
"13347",Plantagenstr. 43,Mitte,AC Steckdose Typ 2,AC Steckdose Typ 2,,,11,11,,,2,13.3690949999994,52.5462069999969
"10557",Clara-Jaschke-Str. 88,Mitte,AC Steckdose Typ 2,AC Steckdose Typ 2,,,11,11,,,2,13.3662339999993,52.5234269999969
"10557",Lehrter Str. 61,Mitte,AC Steckdose Typ 2,AC Steckdose Typ 2,,,11,11,,,2,13.3623959999993,52.530043999997
"13347",Nazarethkirchstr. 41,Mitte,AC Steckdose Typ 2,AC Steckdose Typ 2,,,11,11,,,2,13.3615749999993,52.5493219999969
"13347",Groninger Str. 39,Mitte,AC Steckdose Typ 2,AC Steckdose Typ 2,,,11,11,,,2,13.3613049999994,52.5549459999969
"13347",Turiner Str. 22,Mitte,AC Steckdose Typ 2,AC Steckdose Typ 2,,,11,11,,,2,13.3584989999994,52.549796999997
"13407",Rütlistr. 13,Reinickendorf,AC Steckdose Typ 2,AC Steckdose Typ 2,,,11,11,,,2,13.3571749999994,52.5624589999969
"13353",Nordufer 6,Mitte,AC Steckdose Typ 2,AC Steckdose Typ 2,,,11,11,,,2,13.3562029999994,52.5393919999969
"13353",Genter Str. 45,Mitte,AC Steckdose Typ 2,AC Steckdose Typ 2,,,11,11,,,2,13.3540839999994,52.5470889999969
"13407",Aroser Allee 116,Reinickendorf,AC Steckdose Typ 2,AC Steckdose Typ 2,,,11,11,,,2,13.3516279999994,52.5671709999969
"13349",Bristolstr. 21,Mitte,AC Steckdose Typ 2,AC Steckdose Typ 2,,,11,11,,,2,13.3502239999994,52.558926999997
"10557",Thomasiusstr. 16,Mitte,AC Steckdose Typ 2,AC Steckdose Typ 2,,,11,11,,,2,13.3500809999993,52.5218469999969
"10559",Birkenstr. 68,Mitte,AC Steckdose Typ 2,AC Steckdose Typ 2,,,11,11,,,2,13.3500469999994,52.5299789999969
"10559",Rathenower Str. 35,Mitte,AC Steckdose Typ 2,AC Steckdose Typ 2,,,11,11,,,2,13.3499599999994,52.5345659999969
"10557",Kirchstr. 2,Mitte,AC Steckdose Typ 2,AC Steckdose Typ 2,,,11,11,,,2,13.3493059999994,52.5241269999969
"13353",Buchstr. 1,Mitte,AC Steckdose Typ 2,AC Steckdose Typ 2,,,11,11,,,2,13.3486989999993,52.5390599999969
"10559",Havelberger Str. 17,Mitte,AC Steckdose Typ 2,AC Steckdose Typ 2,,,11,11,,,2,13.3470279999993,52.5344549999969
"10557",Flensburger Str. 20,Mitte,AC Steckdose Typ 2,AC Steckdose Typ 2,,,11,11,,,2,13.3429719999993,52.5205629999969
"10551",Birkenstr. 33,Mitte,AC Steckdose Typ 2,AC Steckdose Typ 2,,,11,11,,,2,13.3410479999993,52.5324409999969
"13351",Cornelius-Fredericks-Str. 76,Mitte,AC Steckdose Typ 2,AC Steckdose Typ 2,,,11,11,,,2,13.3408729999993,52.554992999997
"13351",Transvaalstr. 32,Mitte,AC Steckdose Typ 2,AC Steckdose Typ 2,,,11,11,,,2,13.3406959999994,52.551303999997
"10551",Jonasstr. 1,Mitte,AC Steckdose Typ 2,AC Steckdose Typ 2,,,11,11,,,2,13.3392619999993,52.5268159999968
"10555",Jagowstr. 20,Mitte,AC Steckdose Typ 2,AC Steckdose Typ 2,,,11,11,,,2,13.3340779999993,52.5236039999968
"10555",Alt Moabit 72,Mitte,AC Steckdose Typ 2,AC Steckdose Typ 2,,,11,11,,,2,13.3324209999993,52.5241279999969
"10551",Waldenserstr. 10,Mitte,AC Steckdose Typ 2,AC Steckdose Typ 2,,,11,11,,,2,13.3317299999992,52.5290189999969
"10555",Zwinglistraße 29A,Mitte,AC Steckdose Typ 2,AC Steckdose Typ 2,,,22,22,,,2,13.3308599999993,52.5255599999968
"10587",Franklinstr. 13,Charlottenburg-Wilmersdorf,AC Steckdose Typ 2,AC Steckdose Typ 2,,,11,11,,,2,13.3279929999993,52.5210419999968
"10553",Erasmusstr. 20,Mitte,AC Steckdose Typ 2,AC Steckdose Typ 2,,,11,11,,,2,13.3272099999992,52.5261109999968
"10553",Rostocker Str. 20,Mitte,AC Steckdose Typ 2,AC Steckdose Typ 2,,,22,22,,,2,13.3267199999992,52.5307699999968
"10553",Kaiserin-Augusta-Allee 113,Mitte,AC Steckdose Typ 2,AC Steckdose Typ 2,,,11,11,,,2,13.3234489999993,52.5254409999968
"10587",Morsestr. 2,Charlottenburg-Wilmersdorf,AC Steckdose Typ 2,AC Steckdose Typ 2,,,11,11,,,2,13.3221499999993,52.5217749999969
"10553",Ufnaustr. 10,Mitte,AC Steckdose Typ 2,AC Steckdose Typ 2,,,11,11,,,2,13.3168799999992,52.5306649999969
"13189",Hallandstr. 59,Pankow,AC Steckdose Typ 2,,,,3,,,,1,13.4218159999995,52.5574699999971
"13409",Reginhardstr. 66,Reinickendorf,AC Steckdose Typ 2,,,,3,,,,1,13.3738259999993,52.5626779999969
"13353",Seestr. 18,Mitte,AC Steckdose Typ 2,,,,3,,,,1,13.3451529999994,52.5466019999969
"13403",Blankestr. 19,Reinickendorf,AC Steckdose Typ 2,,,,3,,,,1,13.3297219999993,52.5637339999969
"13403",General-Barby-Straße ggü. 62,Reinickendorf,AC Steckdose Typ 2,,,,3,,,,1,13.3181566394271,52.5715962309296
"13403",General-Barby-Straße 53,Reinickendorf,AC Steckdose Typ 2,,,,3,,,,1,13.3180427956612,52.5712934119373
"13403",General-Barby-Straße ggü. 54,Reinickendorf,AC Steckdose Typ 2,,,,3,,,,1,13.3179603701483,52.5710854456977
"13405",Uranusweg Bei Hausnr. 23,Reinickendorf,AC Steckdose Typ 2,,,,3,,,,1,13.3163699999993,52.5651599999968
"13405",Uranusweg 25,Reinickendorf,AC Steckdose Typ 2,,,,3,,,,1,13.3161799999992,52.5649599999969
"13405",Uranusweg 29,Reinickendorf,AC Steckdose Typ 2,,,,3,,,,1,13.3160099999993,52.5647699999969
"0",Alex-Wedding-Strasse 3,Mitte,AC Steckdose Typ 2,AC Steckdose Typ 2,,,22,22,,,2,13.4153290268661,52.5253973549555
"0",Auguststr. ggü 50a,Mitte,AC Steckdose Typ 2,AC Steckdose Typ 2,,,22,22,,,2,13.4003055038047,52.5276057874322
"0",Ackerstr. ggü. 76,Mitte,AC Steckdose Typ 2,AC Steckdose Typ 2,,,22,22,,,2,13.3840889999994,52.538410999997
"0",Werftstr. ggü. 21,Mitte,AC Steckdose Typ 2,AC Steckdose Typ 2,,,22,22,,,2,13.3594071953012,52.5228765647233
"0",Spenerstr. ggü. 26,Mitte,AC Steckdose Typ 2,AC Steckdose Typ 2,,,22,22,,,2,13.3528894186013,52.5214044835311
"10117",Ackerstraße 117-118,Mitte,AC Steckdose Typ 2,AC Steckdose Typ 2,,,22,22,,,2,13.3855697999993,52.5377143999971
"10117",Ackerstraße 117-118,Mitte,AC Steckdose Typ 2,AC Steckdose Typ 2,,,22,22,,,2,13.3855697999993,52.5377143999971
"10557",Seydlitzstraße 17a,Mitte,AC Steckdose Typ 2,AC Steckdose Typ 2,,,22,22,,,2,13.3591915999994,52.5263534999969
"10557",Lüneburger Straße 13,Mitte,AC Steckdose Typ 2,AC Steckdose Typ 2,,,22,22,,,2,13.3582843999994,52.5208605999969
"10559",Kruppstraße 2,Mitte,AC Steckdose Typ 2,AC Steckdose Typ 2,,,22,22,,,2,13.3581521999993,52.533034799997
"10559",Kruppstraße 2,Mitte,AC Steckdose Typ 2,AC Steckdose Typ 2,,,22,22,,,2,13.3581521999993,52.533034799997
"10557",Seydlitzstraße 15a-b,Mitte,AC Steckdose Typ 2,AC Steckdose Typ 2,,,22,22,,,2,13.3573659999993,52.5257866999969
"10557",Havelberger Straße 28,Mitte,AC Steckdose Typ 2,AC Steckdose Typ 2,,,22,22,,,2,13.3470462999993,52.5316099999969
"10559",Lübecker Straße 3-4,Mitte,AC Steckdose Typ 2,AC Steckdose Typ 2,,,22,22,,,2,13.3454803999994,52.5271335999969
"10559",Lübecker Straße 3-4,Mitte,AC Steckdose Typ 2,AC Steckdose Typ 2,,,22,22,,,2,13.3454610999993,52.5272592999968
"10559",Stephanstr. 30,Mitte,AC Steckdose Typ 2,AC Steckdose Typ 2,,,22,22,,,2,13.3452302999993,52.5328343999969
"10559",Stephanstr. 30,Mitte,AC Steckdose Typ 2,AC Steckdose Typ 2,,,22,22,,,2,13.3452302999993,52.5328343999969
"10555",Krefelder Straße 13,Mitte,AC Steckdose Typ 2,AC Steckdose Typ 2,,,22,22,,,2,13.3398706999993,52.5233179999969
"10555",Essener Straße 20,Mitte,AC Steckdose Typ 2,AC Steckdose Typ 2,,,22,22,,,2,13.3374367999993,52.5235539999968
"10555",Essener Straße 20,Mitte,AC Steckdose Typ 2,AC Steckdose Typ 2,,,22,22,,,2,13.3374367999993,52.5235539999968
"10555",Zwinglistr. 1,Mitte,AC Steckdose Typ 2,AC Steckdose Typ 2,,,22,22,,,2,13.3346461999993,52.5255038999969
"10555",Zwinglistr. 1,Mitte,AC Steckdose Typ 2,AC Steckdose Typ 2,,,22,22,,,2,13.3346461999993,52.5255038999969
"10439",Scherenbergstraße 4,Pankow,AC Steckdose Typ 2,,,,11,,,,1,13.419882502154,52.5504611775366
"10439",Scherenbergstraße 4,Pankow,AC Steckdose Typ 2,,,,11,,,,1,13.419882502154,52.5504611775366
"10439",Scherenbergstraße 4,Pankow,AC Steckdose Typ 2,,,,11,,,,1,13.419882502154,52.5504611775366
"10439",Scherenbergstraße 4,Pankow,AC Steckdose Typ 2,,,,11,,,,1,13.419882502154,52.5504611775366
"10119",Alte Schönhauser Str. ggü. 5,Mitte,AC Steckdose Typ 2,,,,11,,,,1,13.4087237944789,52.527711175118
"10119",Alte Schönhauser Str. ggü. 5,Mitte,AC Steckdose Typ 2,,,,11,,,,1,13.4087237944789,52.527711175118
"13357",Jülicher Straße 15,Mitte,AC Steckdose Typ 2,,,,11,,,,1,13.3914720981635,52.5507966217327
"13357",Jülicher Straße 15,Mitte,AC Steckdose Typ 2,,,,11,,,,1,13.3914720981635,52.5507966217327
"13357",Böttgerstraße 23,Mitte,AC Steckdose Typ 2,,,,11,,,,1,13.3825159999994,52.548694999997
"13357",Böttgerstraße 23,Mitte,AC Steckdose Typ 2,,,,11,,,,1,13.3824729999994,52.5486949999971
"10115",Pflugstraße 9,Mitte,AC Steckdose Typ 2,,,,11,,,,1,13.3797094737612,52.5367013791608
"10115",Pflugstraße 9,Mitte,AC Steckdose Typ 2,,,,11,,,,1,13.3797094737612,52.5367013791608
"13359",Holzstraße 6,Mitte,AC Steckdose Typ 2,,,,11,,,,1,13.3792424661981,52.5617402339576
"13359",Holzstraße 6,Mitte,AC Steckdose Typ 2,,,,11,,,,1,13.3792424661981,52.5617402339576
"13347",Gerichtstraße 65,Mitte,AC Steckdose Typ 2,,,,11,,,,1,13.3725503285135,52.5440050757531
"13347",Gerichtstraße 65,Mitte,AC Steckdose Typ 2,,,,11,,,,1,13.3725503285135,52.5440050757531
"13357",Kösliner Straße 4,Mitte,AC Steckdose Typ 2,,,,11,,,,1,13.3708621011507,52.547295188505
"13357",Kösliner Straße 4,Mitte,AC Steckdose Typ 2,,,,11,,,,1,13.3708621011507,52.547295188505
"13347",Maxstraße ggü. 12,Mitte,AC Steckdose Typ 2,,,,11,,,,1,13.3635649999994,52.5499949999969
"13347",Maxstraße ggü. 12,Mitte,AC Steckdose Typ 2,,,,11,,,,1,13.3634769999994,52.5500559999969
"13347",Nazarethkirchstraße 50,Mitte,AC Steckdose Typ 2,,,,11,,,,1,13.3592119999993,52.5477679999969
"13347",Nazarethkirchstraße 50,Mitte,AC Steckdose Typ 2,,,,11,,,,1,13.3592039999994,52.547767999997
"13353",Genterstraße 68,Mitte,AC Steckdose Typ 2,,,,11,,,,1,13.351462931913,52.5490036812269
"10551",Waldstraße 31,Mitte,AC Steckdose Typ 2,,,,11,,,,1,13.3316201400794,52.532437599539
"10551",Waldstraße 31,Mitte,AC Steckdose Typ 2,,,,11,,,,1,13.3316201400794,52.532437599539
"10249",Höchste Straße 17,Friedrichshain-Kreuzberg,AC Steckdose Typ 2,AC Steckdose Typ 2,,,22,22,,,2,13.4263279999995,52.526234999997
"10249",Höchste Straße 17,Friedrichshain-Kreuzberg,AC Steckdose Typ 2,AC Steckdose Typ 2,,,22,22,,,2,13.4263279999995,52.526234999997
"10405",Heinrich-Roller-Straße 13,Pankow,AC Steckdose Typ 2,AC Steckdose Typ 2,,,22,22,,,2,13.4248299999995,52.530059999997
"10405",Heinrich-Roller-Straße 13,Pankow,AC Steckdose Typ 2,AC Steckdose Typ 2,,,22,22,,,2,13.4248299999995,52.530059999997
"10178",Mollstr. 4,Mitte,AC Steckdose Typ 2,AC Steckdose Typ 2,,,22,22,,,2,13.4205389999995,52.524439999997
"10435",Griebenowstraße 5,Mitte,AC Steckdose Typ 2,AC Steckdose Typ 2,,,22,22,,,2,13.4048779999994,52.535928999997
"10178",Dircksenstraße 50,Mitte,AC Steckdose Typ 2,AC Steckdose Typ 2,,,22,22,,,2,13.4041799999995,52.523329999997
"10119",Fehrbelliner Straße 25,Mitte,AC Steckdose Typ 2,AC Steckdose Typ 2,,,22,22,,,2,13.4031909999995,52.533836999997
"10119",Veteranenstraße 26,Mitte,AC Steckdose Typ 2,AC Steckdose Typ 2,,,22,22,,,2,13.4001179999994,52.532949999997
"10115",Torstr. 165,Mitte,AC Steckdose Typ 2,AC Steckdose Typ 2,,,22,22,,,2,13.3958409999995,52.529124999997
"10115",Anklamer Str. 8,Mitte,AC Steckdose Typ 2,AC Steckdose Typ 2,,,22,22,,,2,13.3957199999995,52.5343029999971
"10115",Gartenstr. 13,Mitte,AC Steckdose Typ 2,AC Steckdose Typ 2,,,22,22,,,2,13.3913499999994,52.5304829999971
"10117",Reinhardtstraße 32,Mitte,AC Steckdose Typ 2,AC Steckdose Typ 2,,,22,22,,,2,13.3809509999994,52.5228319999969
"10117",Schumannstr. 6,Mitte,AC Steckdose Typ 2,AC Steckdose Typ 2,,,22,22,,,2,13.3805809999995,52.5237189999969
"10117",Platz vor dem Neuen Tor,Mitte,AC Steckdose Typ 2,AC Steckdose Typ 2,,,22,22,,,2,13.3788459999994,52.5286769999969
"10115",Boyenstr. 23,Mitte,AC Steckdose Typ 2,AC Steckdose Typ 2,,,22,22,,,2,13.3688899999994,52.535976999997
"10577",Alt-Moabit 5,Mitte,AC Steckdose Typ 2,AC Steckdose Typ 2,,,22,22,,,2,13.3625769999993,52.5231919999969
"0",General-Woyna-Straße  50,Reinickendorf,AC Steckdose Typ 2,,,,3,,,,1,13.3158602988993,52.5706901141969
"10439",Bornholmer Str. 65,Pankow,"AC Steckdose Typ 2, AC Kupplung Typ 2","AC Kupplung Typ 2, DC CHAdeMO","AC Kupplung Typ 2, DC Kupplung Combo",,22,43,43,,3,13.4012899391554,52.5541915898305
"10559",Havelberger Str. 28,Mitte,AC Steckdose Typ 2,AC Steckdose Typ 2,,,22,22,,,2,13.346969604442,52.5315589899037
"12526",Stromstraße 40,Mitte,AC Steckdose Typ 2,AC Steckdose Typ 2,,,11,11,,,2,13.342670440867,52.5306510921637
"12489",Stromstraße 40,Mitte,AC Steckdose Typ 2,AC Steckdose Typ 2,,,11,11,,,2,13.342670440867,52.5306510921637
"13403",Ollenhauer Str. 122,Reinickendorf,"AC Steckdose Typ 2, AC Kupplung Typ 2","AC Kupplung Typ 2, DC Kupplung Combo","AC Kupplung Typ 2, DC CHAdeMO",,22,50,50,,3,13.3290395736289,52.5676803588198
"10115",Gartenstraße 87,Mitte,AC Steckdose Typ 2,,,,11,,,,1,13.3883112999995,52.5327097999971
"10115",Gartenstraße 87,Mitte,AC Steckdose Typ 2,,,,22,,,,1,13.3883112999995,52.5327097999971
"10115",Gartenstraße 87,Mitte,AC Steckdose Typ 2,,,,22,,,,1,13.3883112999995,52.5327097999971
"10115",Gartenstraße 87,Mitte,AC Steckdose Typ 2,,,,22,,,,1,13.3883112999995,52.5327097999971
"10115",Gartenstraße 87,Mitte,AC Steckdose Typ 2,,,,22,,,,1,13.3883112999995,52.5327097999971
"10115",Chausseestr. 61,Mitte,"DC Kupplung Combo, DC CHAdeMO",,,,175,,,,1,13.3751339999994,52.5373049999969
"10115",Chausseestr. 61,Mitte,"DC Kupplung Combo, DC CHAdeMO",,,,175,,,,1,13.3751339999994,52.5373049999969
"10117",Schiffbauerdamm 1,Mitte,AC Steckdose Typ 2,AC Steckdose Typ 2,,,22,22,,,2,13.3874369999994,52.5224339999969
"10117",Am Zirkus 7,Mitte,AC Steckdose Typ 2,AC Steckdose Typ 2,AC Steckdose Typ 2,AC Steckdose Typ 2,11,11,11,11,4,13.3866213288576,52.5230480823189
"10117",Hufelandweg 16,Mitte,AC Steckdose Typ 2,,,,22,,,,1,13.3769755999994,52.5274689999969
"10117",Hufelandweg 16,Mitte,AC Steckdose Typ 2,,,,22,,,,1,13.3769755999994,52.5274689999969
"10117",Hufelandweg 16,Mitte,AC Steckdose Typ 2,,,,22,,,,1,13.3769755999994,52.5274689999969
"10117",Hufelandweg 16,Mitte,AC Steckdose Typ 2,,,,22,,,,1,13.3769755999994,52.5274689999969
"10117",Hufelandweg 16,Mitte,AC Steckdose Typ 2,,,,22,,,,1,13.3769755999994,52.5274689999969
"10117",Hufelandweg 16,Mitte,AC Steckdose Typ 2,,,,22,,,,1,13.3769755999994,52.5274689999969
"10117",Hufelandweg 16,Mitte,AC Steckdose Typ 2,,,,22,,,,1,13.3769755999994,52.5274689999969
"10178",Alexanderstr. 4,Mitte,DC Kupplung Combo,DC Kupplung Combo,,,150,150,,,2,13.4138329999995,52.522746999997
"10178",Karl-Liebknechtstraße 13,Mitte,AC Kupplung Typ 2,"DC Kupplung Combo, DC CHAdeMO",,,43,50,,,2,13.4077371999995,52.522035199997
"10178",Alexanderstrasse 2,Mitte,"AC Steckdose Typ 2, AC Kupplung Typ 2",,,,11,,,,1,13.4145999999995,52.522939999997
"10178",Alexanderstrasse 2,Mitte,"AC Steckdose Typ 2, AC Kupplung Typ 2",,,,11,,,,1,13.4145999999995,52.522939999997
"10178",Alexanderstrasse 2,Mitte,"AC Steckdose Typ 2, AC Kupplung Typ 2",,,,11,,,,1,13.4145999999995,52.522939999997
"10178",Alexanderstrasse 2,Mitte,"AC Steckdose Typ 2, AC Kupplung Typ 2",,,,11,,,,1,13.4145999999995,52.522939999997
"10178",Alexanderstrasse 2,Mitte,"AC Steckdose Typ 2, AC Kupplung Typ 2",,,,11,,,,1,13.4145999999995,52.522939999997
"10178",Alexanderstrasse 2,Mitte,"AC Steckdose Typ 2, AC Kupplung Typ 2",,,,11,,,,1,13.4145999999995,52.522939999997
"10178",Alexanderstrasse 2,Mitte,"AC Steckdose Typ 2, AC Kupplung Typ 2",,,,11,,,,1,13.4145999999995,52.522939999997
"10178",Alexanderstrasse 2,Mitte,"AC Steckdose Typ 2, AC Kupplung Typ 2",,,,11,,,,1,13.4145999999995,52.522939999997
"10178",Alexanderstrasse 2,Mitte,"AC Steckdose Typ 2, AC Kupplung Typ 2",,,,11,,,,1,13.4145999999995,52.522939999997
"10178",Alexanderstrasse 2,Mitte,"AC Steckdose Typ 2, AC Kupplung Typ 2",,,,11,,,,1,13.4145999999995,52.522939999997
"10179",Schönhauser Allee 79-80,Pankow,AC Steckdose Typ 2,,,,11,,,,1,13.4168949999995,52.549485999997
"10179",Dircksenstraße 36,Mitte,AC Steckdose Typ 2,AC Steckdose Typ 2,,,22,22,,,2,13.4086093999995,52.523230899997
"10179",Dircksenstraße 36,Mitte,AC Steckdose Typ 2,AC Steckdose Typ 2,,,22,22,,,2,13.4086093999995,52.523230899997
"10179",Dircksenstraße 36,Mitte,AC Steckdose Typ 2,AC Steckdose Typ 2,,,22,22,,,2,13.4086093999995,52.523230899997
"10557",Clara-Jaschke-Straße 1,Mitte,AC Steckdose Typ 2,,,,11,,,,1,13.3689979999994,52.5251329999969
"10557",Clara-Jaschke-Straße 1,Mitte,AC Steckdose Typ 2,,,,11,,,,1,13.3689979999994,52.5251329999969
"10435",Schwedter Str. 29,Pankow,"DC Kupplung Combo, DC CHAdeMO",AC Kupplung Typ 2,,,50,43,,,2,13.4066149999995,52.536427999997
"10439",Schönhauser Allee 79-80,Pankow,AC Steckdose Typ 2,AC Steckdose Typ 2,,,11,11,,,2,13.4157814999994,52.549458199997
"10439",Schönhauser Allee  79-80,Pankow,AC Steckdose Typ 2,,,,11,,,,1,13.4168949999995,52.549485999997
"10553",Reuchlinstraße 10-11,Mitte,AC Steckdose Typ 2,AC Steckdose Typ 2,,,11,11,,,2,13.3238329821902,52.5261380394523
"10553",Reuchlinstraße 10-11,Mitte,AC Steckdose Typ 2,AC Steckdose Typ 2,,,11,11,,,2,13.3238329821902,52.5261380394523
"10553",Reuchlinstraße 10-11,Mitte,DC Kupplung Combo,DC Kupplung Combo,,,75,75,,,2,13.3238329821902,52.5261380394523
"10553",Kaiserin-Augusta-Allee 16-24,Mitte,AC Steckdose Typ 2,AC Steckdose Typ 2,AC Steckdose Typ 2,AC Steckdose Typ 2,11,11,11,11,4,13.3206699999993,52.5269599999969
"10553",Sickingenstr. 42-46,Charlottenburg-Wilmersdorf,AC Steckdose Typ 2,AC Steckdose Typ 2,,,22,22,,,2,13.3154199999994,52.5309099999969
"10553",Sickingenstr. 42-46,Charlottenburg-Wilmersdorf,AC Steckdose Typ 2,AC Steckdose Typ 2,,,22,22,,,2,13.3154199999994,52.5309099999969
"10553",Sickingenstr. 42-46,Charlottenburg-Wilmersdorf,AC Steckdose Typ 2,AC Steckdose Typ 2,,,22,22,,,2,13.3154199999994,52.5309099999969
"10557",Clara-Jaschke-Straße 1,Mitte,AC Steckdose Typ 2,,,,11,,,,1,13.3689979999994,52.5251329999969
"10557",Clara-Jaschke-Straße 1,Mitte,AC Steckdose Typ 2,,,,11,,,,1,13.3689979999994,52.5251329999969
"10557",Clara-Jaschke-Straße 1,Mitte,AC Steckdose Typ 2,,,,11,,,,1,13.3689979999994,52.5251329999969
"10557",Clara-Jaschke-Straße 1,Mitte,AC Steckdose Typ 2,,,,11,,,,1,13.3689979999994,52.5251329999969
"10557",Clara-Jaschke-Straße 1,Mitte,AC Steckdose Typ 2,,,,11,,,,1,13.3689979999994,52.5251329999969
"10557",Clara-Jaschke-Straße 1,Mitte,AC Steckdose Typ 2,,,,11,,,,1,13.3689979999994,52.5251329999969
"10557",Clara-Jaschke-Straße 1,Mitte,AC Steckdose Typ 2,,,,11,,,,1,13.3689979999994,52.5251329999969
"10557",Clara-Jaschke-Straße 1,Mitte,AC Steckdose Typ 2,,,,11,,,,1,13.3689979999994,52.5251329999969
"10557",Heidestrasse 40,Mitte,AC Steckdose Typ 2,AC Steckdose Typ 2,AC Steckdose Typ 2,AC Steckdose Typ 2,22,22,22,22,4,13.3633879999994,52.535563999997
"10557",Heidestrasse 40,Mitte,AC Steckdose Typ 2,AC Steckdose Typ 2,AC Steckdose Typ 2,AC Steckdose Typ 2,22,22,22,22,4,13.3633879999994,52.535563999997
"10557",Heidestrasse 40,Mitte,AC Steckdose Typ 2,AC Steckdose Typ 2,AC Steckdose Typ 2,AC Steckdose Typ 2,22,22,22,22,4,13.3633879999994,52.535563999997
"10557",Heidestrasse 40,Mitte,AC Steckdose Typ 2,AC Steckdose Typ 2,AC Steckdose Typ 2,AC Steckdose Typ 2,22,22,22,22,4,13.3633879999994,52.535563999997
"10557",Heidestrasse 40,Mitte,AC Steckdose Typ 2,AC Steckdose Typ 2,AC Steckdose Typ 2,AC Steckdose Typ 2,22,22,22,22,4,13.3633879999994,52.535563999997
"10557",Heidestrasse 40,Mitte,AC Steckdose Typ 2,AC Steckdose Typ 2,AC Steckdose Typ 2,AC Steckdose Typ 2,22,22,22,22,4,13.3633879999994,52.535563999997
"10557",Heidestrasse 40,Mitte,AC Steckdose Typ 2,,,,22,,,,1,13.3633879999994,52.535563999997
"10557",Invalidenstraße 54,Mitte,AC Steckdose Typ 2,AC Steckdose Typ 2,,,22,22,,,2,13.3655570999994,52.5257300999969
"10557",Invalidenstraße 54,Mitte,AC Steckdose Typ 2,AC Steckdose Typ 2,,,22,22,,,2,13.3655570999994,52.5257300999969
"10557",Invalidenstraße 54,Mitte,AC Steckdose Typ 2,AC Steckdose Typ 2,,,22,22,,,2,13.3655570999994,52.5257300999969
"10557",Invalidenstraße 54,Mitte,AC Steckdose Typ 2,AC Steckdose Typ 2,,,22,22,,,2,13.3655570999994,52.5257300999969
"10557",Invalidenstraße 54,Mitte,AC Steckdose Typ 2,AC Steckdose Typ 2,,,22,22,,,2,13.3655570999994,52.5257300999969
"10557",Invalidenstraße 54,Mitte,AC Steckdose Typ 2,AC Steckdose Typ 2,,,22,22,,,2,13.3655570999994,52.5257300999969
"10557",Invalidenstraße 54,Mitte,AC Steckdose Typ 2,AC Steckdose Typ 2,,,22,22,,,2,13.3655570999994,52.5257300999969
"10557",Invalidenstraße 54,Mitte,AC Steckdose Typ 2,AC Steckdose Typ 2,,,22,22,,,2,13.3655570999994,52.5257300999969
"10557",Invalidenstraße 54,Mitte,AC Steckdose Typ 2,AC Steckdose Typ 2,,,22,22,,,2,13.3655570999994,52.5257300999969
"10557",Lydia-Rabinowitsch-Straße §,Mitte,AC Steckdose Typ 2,AC Steckdose Typ 2,,,22,22,,,2,13.3679299999994,52.531723999997
"13355",Gustav-Meyer-Allee 25,Mitte,AC Steckdose Typ 2,,,,22,,,,1,13.3856459999994,52.5415669999969
"10557",Hedwig-Porschütz-Str. 4-6,Mitte,AC Steckdose Typ 2,AC Steckdose Typ 2,,,22,22,,,2,13.3656999999994,52.533883999997
"10557",Hedwig-Porschütz-Str. 4-6,Mitte,AC Steckdose Typ 2,AC Steckdose Typ 2,,,22,22,,,2,13.3656999999994,52.533883999997
"10557",Kruppstr. 7,Mitte,AC Steckdose Typ 2,AC Steckdose Typ 2,,,22,22,,,2,13.3525709999994,52.5313749999969
"10559",Ellen-Epstein-Straße 1,Mitte,DC Kupplung Combo,DC Kupplung Combo,,,150,150,,,2,13.3547799999994,52.5362699999969
"10559",Ellen-Epstein-Straße 1,Mitte,DC Kupplung Combo,DC Kupplung Combo,,,150,150,,,2,13.3547799999994,52.5362699999969
"10559",Ellen-Epstein-Straße 1,Mitte,DC Kupplung Combo,DC Kupplung Combo,,,300,300,,,2,13.3547799999994,52.5362699999969
"10559",Ellen-Epstein-Straße 1,Mitte,DC Kupplung Combo,DC Kupplung Combo,,,300,300,,,2,13.3547799999994,52.5362699999969
"10559",Quitzowstr. 23,Mitte,"AC Steckdose Typ 2, AC Kupplung Typ 2","AC Steckdose Typ 2, AC Kupplung Typ 2",,,22,22,,,2,13.3531109999993,52.5356409999969
"10559",Birkenstr. 21,Mitte,AC Kupplung Typ 2,AC Kupplung Typ 2,,,22,22,,,2,13.3453617343497,52.5316131998475
"10559",Birkenstr. 21,Mitte,AC Kupplung Typ 2,AC Kupplung Typ 2,AC Kupplung Typ 2,AC Kupplung Typ 2,22,22,22,22,4,13.3453617343497,52.5316131998475
"10559",Birkenstr. 21,Mitte,AC Kupplung Typ 2,AC Kupplung Typ 2,AC Kupplung Typ 2,AC Kupplung Typ 2,22,22,22,22,4,13.3453617343497,52.5316131998475
"10559",Birkenstr. 21,Mitte,AC Kupplung Typ 2,AC Kupplung Typ 2,AC Kupplung Typ 2,AC Kupplung Typ 2,22,22,22,22,4,13.3453617343497,52.5316131998475
"10559",Birkenstr. 21,Mitte,AC Kupplung Typ 2,AC Kupplung Typ 2,AC Kupplung Typ 2,AC Kupplung Typ 2,22,22,22,22,4,13.3453617343497,52.5316131998475
"10559",Birkenstr. 21,Mitte,AC Kupplung Typ 2,AC Kupplung Typ 2,AC Kupplung Typ 2,AC Kupplung Typ 2,22,22,22,22,4,13.3453617343497,52.5316131998475
"10559",Birkenstr. 21,Mitte,AC Kupplung Typ 2,AC Kupplung Typ 2,AC Kupplung Typ 2,AC Kupplung Typ 2,22,22,22,22,4,13.3453617343497,52.5316131998475
"10559",Birkenstr. 21,Mitte,AC Kupplung Typ 2,AC Kupplung Typ 2,AC Kupplung Typ 2,AC Kupplung Typ 2,22,22,22,22,4,13.3453617343497,52.5316131998475
"10559",Birkenstr. 21,Mitte,AC Kupplung Typ 2,AC Kupplung Typ 2,AC Kupplung Typ 2,AC Kupplung Typ 2,22,22,22,22,4,13.3453617343497,52.5316131998475
"10559",Birkenstr. 21,Mitte,AC Kupplung Typ 2,AC Kupplung Typ 2,AC Kupplung Typ 2,AC Kupplung Typ 2,22,22,22,22,4,13.3453617343497,52.5316131998475
"10559",Birkenstr. 21,Mitte,AC Kupplung Typ 2,AC Kupplung Typ 2,AC Kupplung Typ 2,AC Kupplung Typ 2,22,22,22,22,4,13.3453617343497,52.5316131998475
"10559",Birkenstr. 21,Mitte,AC Kupplung Typ 2,AC Kupplung Typ 2,AC Kupplung Typ 2,AC Kupplung Typ 2,22,22,22,22,4,13.3453617343497,52.5316131998475
"10559",Birkenstr. 21,Mitte,AC Kupplung Typ 2,AC Kupplung Typ 2,AC Kupplung Typ 2,AC Kupplung Typ 2,22,22,22,22,4,13.3453617343497,52.5316131998475
"10559",Birkenstr. 21,Mitte,AC Kupplung Typ 2,AC Kupplung Typ 2,AC Kupplung Typ 2,AC Kupplung Typ 2,22,22,22,22,4,13.3453617343497,52.5316131998475
"10559",Birkenstr. 21,Mitte,AC Kupplung Typ 2,AC Kupplung Typ 2,AC Kupplung Typ 2,AC Kupplung Typ 2,22,22,22,22,4,13.3453617343497,52.5316131998475
"10559",Birkenstr. 21,Mitte,AC Kupplung Typ 2,AC Kupplung Typ 2,AC Kupplung Typ 2,AC Kupplung Typ 2,22,22,22,22,4,13.3453617343497,52.5316131998475
"10559",Birkenstr. 21,Mitte,AC Kupplung Typ 2,AC Kupplung Typ 2,AC Kupplung Typ 2,AC Kupplung Typ 2,22,22,22,22,4,13.3453617343497,52.5316131998475
"10559",Birkenstr. 21,Mitte,AC Kupplung Typ 2,AC Kupplung Typ 2,AC Kupplung Typ 2,AC Kupplung Typ 2,22,22,22,22,4,13.3453617343497,52.5316131998475
"10559",Birkenstr. 21,Mitte,AC Kupplung Typ 2,AC Kupplung Typ 2,AC Kupplung Typ 2,AC Kupplung Typ 2,22,22,22,22,4,13.3453617343497,52.5316131998475
"10559",Turmstraße 26,Mitte,AC Steckdose Typ 2,AC Steckdose Typ 2,AC Steckdose Typ 2,,22,22,22,,3,13.3441029999994,52.5268459999969
"10559",Turmstr. 26,Mitte,AC Steckdose Typ 2,AC Steckdose Typ 2,AC Steckdose Typ 2,AC Steckdose Typ 2,11,11,11,11,4,13.3439399999993,52.5264799999969
"10559",Turmstr. 26,Mitte,AC Steckdose Typ 2,AC Steckdose Typ 2,,,11,11,,,2,13.3439399999993,52.5264799999969
"10587",Franklinstraße (Gebauer Höfe) 2-15a,Charlottenburg-Wilmersdorf,AC Steckdose Typ 2,AC Steckdose Typ 2,,,11,11,,,2,13.3274353695966,52.5205221727787
"10587",Helmholtzstraße 2-9,Charlottenburg-Wilmersdorf,AC Steckdose Typ 2,AC Steckdose Typ 2,,,11,11,,,2,13.3250649110252,52.5214338206664
"10587",Helmholtzstraße 2-9,Charlottenburg-Wilmersdorf,AC Steckdose Typ 2,AC Steckdose Typ 2,,,11,11,,,2,13.3250649110252,52.5214338206664
"10587",Pascalstraße 8,Charlottenburg-Wilmersdorf,AC Steckdose Typ 2,,,,11,,,,1,13.3238405999993,52.5232167999968
"10587",Pascalstraße 8,Charlottenburg-Wilmersdorf,AC Steckdose Typ 2,,,,11,,,,1,13.3238405999993,52.5232167999968
"10587",Pascalstraße 8,Charlottenburg-Wilmersdorf,AC Steckdose Typ 2,,,,11,,,,1,13.3238405999993,52.5232167999968
"10587",Pascalstraße 8,Charlottenburg-Wilmersdorf,AC Steckdose Typ 2,,,,11,,,,1,13.3238405999993,52.5232167999968
"10587",Pascalstraße 8,Charlottenburg-Wilmersdorf,AC Steckdose Typ 2,,,,11,,,,1,13.3238405999993,52.5232167999968
"10587",Pascalstraße 8,Charlottenburg-Wilmersdorf,AC Steckdose Typ 2,,,,11,,,,1,13.3238405999993,52.5232167999968
"10587",Pascalstraße 8,Charlottenburg-Wilmersdorf,AC Steckdose Typ 2,,,,11,,,,1,13.3238405999993,52.5232167999968
"10587",Pascalstraße 8,Charlottenburg-Wilmersdorf,AC Steckdose Typ 2,,,,11,,,,1,13.3238405999993,52.5232167999968
"10587",Pascalstraße 8,Charlottenburg-Wilmersdorf,AC Steckdose Typ 2,,,,11,,,,1,13.3238405999993,52.5232167999968
"10587",Pascalstraße 8,Charlottenburg-Wilmersdorf,AC Steckdose Typ 2,,,,11,,,,1,13.3238405999993,52.5232167999968
"10587",Pascalstraße 8,Charlottenburg-Wilmersdorf,DC Kupplung Combo,"DC Kupplung Combo, DC CHAdeMO",AC Steckdose Typ 2,,25,32,22,,3,13.3238405999993,52.5232167999968
"10587",Franklinstraße 23,Charlottenburg-Wilmersdorf,DC Kupplung Combo,DC Kupplung Combo,,,350,350,,,2,13.3263999999993,52.5207999999968
"13086",Pistoriusstr. 66-67,Pankow,AC Steckdose Typ 2,AC Steckdose Typ 2,,,22,22,,,2,13.4377229999996,52.5561589999971
"13089",Prenzlauer Promenade 68,Pankow,DC Kupplung Combo,DC Kupplung Combo,,,150,150,,,2,13.4280019999995,52.568057999997
"13089",Prenzlauer Promenade 65,Pankow,"AC Steckdose Typ 2, AC Kupplung Typ 2","AC Kupplung Typ 2, DC Kupplung Combo","AC Kupplung Typ 2, DC CHAdeMO",,22,50,50,,3,13.4280029999996,52.567325999997
"13089",Rothenbachstr. 1,Pankow,"DC Kupplung Combo, DC CHAdeMO",,,,175,,,,1,13.4295139999995,52.5717279999971
"13089",Rothenbachstr. 1,Pankow,"DC Kupplung Combo, DC CHAdeMO",,,,175,,,,1,13.4295139999995,52.5717279999971
"13089",Prenzlauer Promenade 46,Pankow,AC Steckdose Typ 2,,,,11,,,,1,13.4288519999995,52.561185999997
"13089",Prenzlauer Promenade 46,Pankow,DC Kupplung Combo,AC Steckdose Typ 2,,,22,11,,,2,13.4293949999996,52.561279999997
"13156",Grabbeallee 27-29,Pankow,AC Steckdose Typ 2,AC Steckdose Typ 2,,,22,22,,,2,13.3990349999995,52.574124999997
"13187",Wollankstrasse 16,Pankow,DC Kupplung Combo,DC Kupplung Combo,,,150,150,,,2,13.3952399999995,52.565829999997
"13187",Wollankstrasse 16,Pankow,DC Kupplung Combo,DC Kupplung Combo,,,150,150,,,2,13.3952399999995,52.565829999997
"13187",Wollankstrasse 16,Pankow,DC Kupplung Combo,DC Kupplung Combo,,,300,300,,,2,13.3952399999995,52.565829999997
"13347",Gerichtstr. 4,Mitte,DC Kupplung Combo,DC Kupplung Combo,,,150,150,,,2,13.3780899999995,52.5429399999969
"13355",Gustav-Meyer-Allee 25,Mitte,AC Steckdose Typ 2,AC Steckdose Typ 2,,,11,11,,,2,13.3836123678219,52.5420633492605
"13355",Voltastraße 5,Mitte,AC Steckdose Typ 2,AC Steckdose Typ 2,,,11,11,,,2,13.3914885860398,52.5427176417829
"13355",Voltastraße 5,Mitte,DC Kupplung Combo,DC Kupplung Combo,,,75,75,,,2,13.3899436337561,52.5422608926565
"13355",Gustav-Meyer-Allee 25,Mitte,AC Steckdose Typ 2,,,,22,,,,1,13.3853349999994,52.5414719999969
"13355",Gustav-Meyer-Allee 25,Mitte,AC Steckdose Typ 2,,,,22,,,,1,13.3855729999994,52.541543999997
"13355",Gustav-Meyer-Allee 25,Mitte,AC Steckdose Typ 2,,,,22,,,,1,13.3856189999995,52.541556999997
"13355",Gustav-Meyer-Allee 25,Mitte,AC Steckdose Typ 2,,,,22,,,,1,13.3856779999994,52.541571999997
"13355",Gustav-Meyer-Allee 25,Mitte,AC Steckdose Typ 2,,,,22,,,,1,13.3857189999994,52.5415869999969
"13355",Gustav-Meyer-Allee 25,Mitte,DC Kupplung Combo,"DC Kupplung Combo, DC CHAdeMO",AC Steckdose Typ 2,,25,32,22,,3,13.3852779999994,52.5414729999971
"13355",Voltastraße 5,Mitte,AC Steckdose Typ 2,AC Steckdose Typ 2,,,11,11,,,2,13.3914885860398,52.5427176417829
"13357",Badstr. 4,Mitte,AC Steckdose Typ 2,AC Steckdose Typ 2,AC Steckdose Typ 2,AC Steckdose Typ 2,11,11,11,11,4,13.3886719999995,52.549618999997
"13357",Prinzenallee 75,Mitte,AC Steckdose Typ 2,AC Steckdose Typ 2,,,22,22,,,2,13.3833119999994,52.5551089999969
"13357",Reinickendorfer Str. 41,Mitte,AC Steckdose Typ 2,AC Steckdose Typ 2,,,22,22,,,2,13.3695999999994,52.549040999997
"13357",Jülicher Straße 1,Mitte,DC Kupplung Combo,DC Kupplung Combo,,,360,360,,,2,13.3917999999994,52.552779999997
"13359",Steegerstr. 14,Mitte,AC Steckdose Typ 2,AC Steckdose Typ 2,,,11,11,,,2,13.3948479999995,52.561812999997
"13359",Schwedenstraße 9,Mitte,AC Kupplung Typ 2,AC Kupplung Typ 2,,,11,11,,,2,13.3724801999995,52.5582148999969
"13403",Saalmannstraße 7-9,Mitte,AC Steckdose Typ 2,AC Steckdose Typ 2,,,11,11,,,2,13.3238329821902,52.5261380394523
"13403",Saalmannstraße 7-9,Mitte,DC Kupplung Combo,,,,150,,,,1,13.3238329821902,52.5261380394523
"13403",Ollenhauerstr. 122,Reinickendorf,AC Kupplung Typ 2,"AC Kupplung Typ 2, DC CHAdeMO",,,43,50,,,2,13.3285119999994,52.5678689999969
"13409",Markstraße 16,Mitte,DC Kupplung Combo,DC Kupplung Combo,,,150,150,,,2,13.3645079999994,52.560700999997
"13409",Markstr. 41,Reinickendorf,"AC Steckdose Typ 2, AC Kupplung Typ 2","AC Kupplung Typ 2, DC Kupplung Combo","AC Kupplung Typ 2, DC CHAdeMO",,22,50,50,,3,13.3651079999994,52.5619259999969
"13409",Residenzstraße 85,Mitte,AC Kupplung Typ 2,"DC Kupplung Combo, DC CHAdeMO",,,43,50,,,2,13.3731471999994,52.559115599997
"14089",Am Landschaftspark Gatow 45,Spandau,AC Steckdose Typ 2,AC Steckdose Typ 2,,,22,22,,,2,13.1288059999987,52.4733529999962
"12045",Wildenbruchstr. 89,Neukölln,AC Steckdose Typ 2,AC Steckdose Typ 2,,,11,11,,,2,13.4407369999995,52.482172999997
"10249",Friedenstr. 68,Friedrichshain-Kreuzberg,AC Steckdose Typ 2,AC Steckdose Typ 2,,,11,11,,,2,13.4402379999995,52.518611999997
"12051",Kirchhofstr. 17,Neukölln,AC Steckdose Typ 2,AC Steckdose Typ 2,,,22,22,,,2,13.4389539999996,52.469641999997
"10243",Str. der Pariser Kommune 18,Friedrichshain-Kreuzberg,AC Steckdose Typ 2,AC Steckdose Typ 2,,,11,11,,,2,13.4381789999995,52.5116449999971
"10243",Koppenstr. 46,Friedrichshain-Kreuzberg,AC Steckdose Typ 2,AC Steckdose Typ 2,,,11,11,,,2,13.4377249999994,52.5201019999971
"10997",Wrangelstr. 35,Friedrichshain-Kreuzberg,AC Steckdose Typ 2,AC Steckdose Typ 2,,,11,11,,,2,13.4371749999995,52.5004909999971
"10999",Glogauer Str. 20,Friedrichshain-Kreuzberg,AC Steckdose Typ 2,AC Steckdose Typ 2,,,11,11,,,2,13.4364049999995,52.492325999997
"12053",Werbellinstr. 8,Neukölln,AC Steckdose Typ 2,AC Steckdose Typ 2,,,11,11,,,2,13.4363079999995,52.4788939999971
"12053",Ilsestr. 7,Neukölln,AC Steckdose Typ 2,AC Steckdose Typ 2,,,11,11,,,2,13.4351029999994,52.470672999997
"10243",Koppenstr. 75,Friedrichshain-Kreuzberg,AC Steckdose Typ 2,AC Steckdose Typ 2,,,11,11,,,2,13.4348959999995,52.514165999997
"10243",Friedrichsberger Str. 24,Friedrichshain-Kreuzberg,AC Steckdose Typ 2,AC Steckdose Typ 2,,,11,11,,,2,13.4348409999994,52.521065999997
"12045",Jansastr. 13,Neukölln,AC Steckdose Typ 2,AC Steckdose Typ 2,,,11,11,,,2,13.4335369999995,52.4858319999971
"10997",Eisenbahnstr. 39,Friedrichshain-Kreuzberg,AC Steckdose Typ 2,AC Steckdose Typ 2,,,11,11,,,2,13.4325969999995,52.5025189999971
"10243",Andreasstr. 47,Friedrichshain-Kreuzberg,AC Steckdose Typ 2,AC Steckdose Typ 2,,,11,11,,,2,13.4325849999995,52.517176999997
"12053",Isarstr. 4,Neukölln,AC Steckdose Typ 2,AC Steckdose Typ 2,,,22,22,,,2,13.4318409999995,52.480828999997
"10997",Manteuffelstr. 122,Friedrichshain-Kreuzberg,AC Steckdose Typ 2,AC Steckdose Typ 2,,,22,22,,,2,13.4312869999996,52.5048509999971
"10997",Muskauer Str. 45,Friedrichshain-Kreuzberg,AC Steckdose Typ 2,AC Steckdose Typ 2,,,11,11,,,2,13.4305349999995,52.501752999997
"10999",Lausitzer Str. 6,Friedrichshain-Kreuzberg,AC Steckdose Typ 2,AC Steckdose Typ 2,,,11,11,,,2,13.4293899999995,52.498080999997
"12053",Reuter Str. 82,Neukölln,AC Steckdose Typ 2,AC Steckdose Typ 2,,,11,11,,,2,13.4288179999995,52.483496999997
"12047",Friedelstr. 5,Neukölln,AC Steckdose Typ 2,AC Steckdose Typ 2,,,22,22,,,2,13.4280189999994,52.487812999997
"12053",Leykestr. 18,Neukölln,AC Steckdose Typ 2,AC Steckdose Typ 2,,,11,11,,,2,13.4278699999995,52.474871999997
"12053",Rollbergstr. 72,Neukölln,AC Steckdose Typ 2,AC Steckdose Typ 2,,,11,11,,,2,13.4269139999995,52.478350999997
"10999",Skalitzer Str. 38,Friedrichshain-Kreuzberg,AC Steckdose Typ 2,AC Steckdose Typ 2,,,22,22,,,2,13.4262799999995,52.498829999997
"10179",Engeldamm 30,Mitte,AC Steckdose Typ 2,AC Steckdose Typ 2,,,11,11,,,2,13.4262179999994,52.5062319999971
"12043",Karl-Marx-Str. 4,Neukölln,AC Steckdose Typ 2,AC Steckdose Typ 2,,,11,11,,,2,13.4251589999995,52.485864999997
"12047",Lenaustr. 1,Neukölln,AC Steckdose Typ 2,AC Steckdose Typ 2,,,11,11,,,2,13.4244329999995,52.489937999997
"10179",Wilhelmine-Gemberg-Weg 3,Mitte,AC Steckdose Typ 2,AC Steckdose Typ 2,,,11,11,,,2,13.4234699999995,52.509717999997
"10178",Karl-Marx-Allee 35,Mitte,AC Steckdose Typ 2,AC Steckdose Typ 2,,,11,11,,,2,13.4234279999995,52.520271999997
"12047",Sanderstr. 1,Neukölln,AC Steckdose Typ 2,AC Steckdose Typ 2,,,11,11,,,2,13.4231349999995,52.492142999997
"12047",Spremberger Str. 7,Neukölln,AC Steckdose Typ 2,AC Steckdose Typ 2,,,11,11,,,2,13.4230769999995,52.494062999997
"10999",Paul-Lincke-Ufer 39,Friedrichshain-Kreuzberg,AC Steckdose Typ 2,AC Steckdose Typ 2,,,11,11,,,2,13.4225279999995,52.495922999997
"10179",Adalbertstr. 66,Mitte,AC Steckdose Typ 2,AC Steckdose Typ 2,,,11,11,,,2,13.4225259999995,52.505723999997
"12049",Lichtenrader Str. 50,Neukölln,AC Steckdose Typ 2,AC Steckdose Typ 2,,,11,11,,,2,13.4202229999995,52.4771619999971
"10999",Reichenberger Str. 20,Friedrichshain-Kreuzberg,AC Steckdose Typ 2,AC Steckdose Typ 2,,,11,11,,,2,13.4199089999995,52.4985679999971
"10967",Schönleinstr. 20,Friedrichshain-Kreuzberg,AC Steckdose Typ 2,AC Steckdose Typ 2,,,11,11,,,2,13.4198889999994,52.490196999997
"10999",Leuschnerdamm 1,Mitte,AC Steckdose Typ 2,AC Steckdose Typ 2,,,11,11,,,2,13.4193789999994,52.505620999997
"10179",Rungestr. 22,Mitte,AC Steckdose Typ 2,AC Steckdose Typ 2,,,11,11,,,2,13.4188999999994,52.512340999997
"10999",Dresdener Str. 124,Friedrichshain-Kreuzberg,AC Steckdose Typ 2,AC Steckdose Typ 2,,,11,11,,,2,13.4168469999994,52.5009729999971
"10967",Dieffenbachstr. 19,Friedrichshain-Kreuzberg,AC Steckdose Typ 2,AC Steckdose Typ 2,,,11,11,,,2,13.4166409999995,52.492521999997
"10967",Graefestr. 59 a,Friedrichshain-Kreuzberg,AC Steckdose Typ 2,AC Steckdose Typ 2,,,22,22,,,2,13.4155979999995,52.4900649999971
"10179",Am Köllnischen Park 3,Mitte,AC Steckdose Typ 2,AC Steckdose Typ 2,,,11,11,,,2,13.4155779999995,52.513387999997
"10179",Heinrich-Heine-Str. 13,Mitte,AC Steckdose Typ 2,AC Steckdose Typ 2,,,11,11,,,2,13.4144459999995,52.508217999997
"10999",Erkelenzdamm 29,Friedrichshain-Kreuzberg,AC Steckdose Typ 2,AC Steckdose Typ 2,,,11,11,,,2,13.4144019999995,52.499275999997
"10967",Grimmstr. 9,Friedrichshain-Kreuzberg,AC Steckdose Typ 2,AC Steckdose Typ 2,,,11,11,,,2,13.4135379999994,52.4934759999971
"10179",Littenstr. 15,Mitte,AC Steckdose Typ 2,AC Steckdose Typ 2,,,22,22,,,2,13.4131879999994,52.5187909999971
"10969",Stallschreiberstr. 55,Friedrichshain-Kreuzberg,AC Steckdose Typ 2,AC Steckdose Typ 2,,,11,11,,,2,13.4096679999994,52.5042699999971
"10969",Wassertorstr. 53,Friedrichshain-Kreuzberg,AC Steckdose Typ 2,AC Steckdose Typ 2,,,11,11,,,2,13.4075919999995,52.500007999997
"10967",Fontanepromenade 4,Friedrichshain-Kreuzberg,AC Steckdose Typ 2,AC Steckdose Typ 2,,,11,11,,,2,13.4075159999995,52.490400999997
"10961",Südstern 14,Friedrichshain-Kreuzberg,AC Steckdose Typ 2,AC Steckdose Typ 2,,,11,11,,,2,13.4072739999994,52.488684999997
"10178",Spandauer Str. 2,Mitte,AC Steckdose Typ 2,AC Steckdose Typ 2,,,11,11,,,2,13.4039439999994,52.5209779999971
"10117",Seydelstr. 7,Mitte,AC Steckdose Typ 2,AC Steckdose Typ 2,,,11,11,,,2,13.4032249999995,52.5101129999971
"10969",Lobeckstr. 82,Friedrichshain-Kreuzberg,AC Steckdose Typ 2,AC Steckdose Typ 2,,,11,11,,,2,13.4030259999994,52.498638999997
"10178",Breite Str. 37,Mitte,AC Steckdose Typ 2,AC Steckdose Typ 2,,,11,11,,,2,13.4027249999994,52.516168999997
"10117",Beuthstr. 2,Mitte,AC Steckdose Typ 2,AC Steckdose Typ 2,,,11,11,,,2,13.4026569999995,52.508886999997
"10961",Tempelherrenstr. 14,Friedrichshain-Kreuzberg,AC Steckdose Typ 2,AC Steckdose Typ 2,,,11,11,,,2,13.4016719999995,52.4960509999969
"10961",Baerwaldstr. 44,Friedrichshain-Kreuzberg,AC Steckdose Typ 2,AC Steckdose Typ 2,,,11,11,,,2,13.4002809999995,52.4900689999969
"10969",Alte Jakobstr. 121,Friedrichshain-Kreuzberg,AC Steckdose Typ 2,AC Steckdose Typ 2,,,11,11,,,2,13.3994909999995,52.504874999997
"10961",Blücherstr. 19,Friedrichshain-Kreuzberg,AC Steckdose Typ 2,AC Steckdose Typ 2,,,11,11,,,2,13.3982429999994,52.494799999997
"10117",Leipziger Str. 59,Mitte,AC Steckdose Typ 2,AC Steckdose Typ 2,,,11,11,,,2,13.3967629999995,52.511308999997
"10965",Willibald-Alexis-Str. 43,Friedrichshain-Kreuzberg,AC Steckdose Typ 2,AC Steckdose Typ 2,,,11,11,,,2,13.3964389999994,52.487181999997
"10117",Jägerstr. 49,Mitte,AC Steckdose Typ 2,AC Steckdose Typ 2,,,11,11,,,2,13.3955829999994,52.514301999997
"10969",Markgrafenstr. 18,Friedrichshain-Kreuzberg,AC Steckdose Typ 2,AC Steckdose Typ 2,,,11,11,,,2,13.3945839999995,52.506310999997
"10965",Schwiebusser Str. 46,Friedrichshain-Kreuzberg,AC Steckdose Typ 2,AC Steckdose Typ 2,,,11,11,,,2,13.3940979999994,52.4859009999969
"10117",Markgrafenstr. 28,Mitte,AC Steckdose Typ 2,AC Steckdose Typ 2,,,11,11,,,2,13.3939779999995,52.5095729999971
"10117",Markgrafenstr. 33,Mitte,AC Steckdose Typ 2,AC Steckdose Typ 2,,,11,11,,,2,13.3935969999994,52.5122119999969
"10965",Schenkendorfstr. 8,Friedrichshain-Kreuzberg,AC Steckdose Typ 2,AC Steckdose Typ 2,,,11,11,,,2,13.3929449999995,52.4890749999969
"10961",Solmsstr. 16,Friedrichshain-Kreuzberg,AC Steckdose Typ 2,AC Steckdose Typ 2,,,11,11,,,2,13.3925489999995,52.4915829999969
"10117",Zimmerstr. 77,Mitte,AC Steckdose Typ 2,AC Steckdose Typ 2,,,11,11,,,2,13.3920389999994,52.5078569999969
"10961",Nostitzstr. 47,Friedrichshain-Kreuzberg,AC Steckdose Typ 2,AC Steckdose Typ 2,,,22,22,,,2,13.3907569999995,52.4915169999969
"10961",Nostitzstr. 36,Friedrichshain-Kreuzberg,AC Steckdose Typ 2,AC Steckdose Typ 2,,,11,11,,,2,13.3902839999994,52.4898609999969
